<?xml version="1.0" encoding="UTF-8"?>
<stores>
  <store lat='' lng='' name='源珍素食自助餐' filename=',_1.html' />
  <store lat='25.067' lng='121.583' name='池堂平價鐵板快餐' filename='25.067,121.583_2.html' />
  <store lat='24.99' lng='121.541' name='二空一品 (涼麵。涼皮。餃子館)' filename='24.99,121.541_3.html' />
  <store lat='25.063' lng='121.645' name='海苔先生' filename='25.063,121.645_4.html' />
  <store lat='25.061' lng='121.486' name='李亭香～糕餅廠' filename='25.061,121.486_5.html' />
  <store lat='' lng='' name='好滋味小吃' filename=',_6.html' />
  <store lat='' lng='' name='觀心素食-新店' filename=',_7.html' />
  <store lat='25.049' lng='121.463' name='阿淑肉圓' filename='25.049,121.463_8.html' />
  <store lat='25.024' lng='121.471' name='阿舜平價牛排' filename='25.024,121.471_9.html' />
  <store lat='25.003' lng='121.551' name='概念' filename='25.003,121.551_10.html' />
  <store lat='24.817' lng='121.027' name='劉記燒臘館' filename='24.817,121.027_11.html' />
  <store lat='25.003' lng='121.551' name='養生茶 靈芝 金線蓮' filename='25.003,121.551_12.html' />
  <store lat='25.051' lng='121.561' name='佳德鳳梨酥 (2012年訂單)' filename='25.051,121.561_13.html' />
  <store lat='24.981' lng='121.561' name='八方雲集鍋貼水餃專賣店-木新店' filename='24.981,121.561_14.html' />
  <store lat='25.036' lng='121.578' name='大方冰品' filename='25.036,121.578_15.html' />
  <store lat='25.027' lng='121.565' name='圓環頂蚵仔煎' filename='25.027,121.565_16.html' />
  <store lat='24.912' lng='121.183' name='二師父麻油雞' filename='24.912,121.183_17.html' />
  <store lat='24.803' lng='120.97' name='波哥(新竹店)' filename='24.803,120.97_18.html' />
  <store lat='25.024' lng='121.551' name='第八口鳳梨酥' filename='25.024,121.551_19.html' />
  <store lat='24.778' lng='121.02' name='五花馬' filename='24.778,121.02_20.html' />
  <store lat='24.979' lng='121.545' name='大井烤茶&amp;咖啡-新店中興店' filename='24.979,121.545_21.html' />
  <store lat='23.034' lng='120.308' name='茂全快餐便當' filename='23.034,120.308_22.html' />
  <store lat='25.039' lng='121.556' name='天府麵庄' filename='25.039,121.556_23.html' />
  <store lat='25.033' lng='121.5' name='阿默蛋糕' filename='25.033,121.5_24.html' />
  <store lat='22.987' lng='120.236' name='紅茶幫(富農店)' filename='22.987,120.236_25.html' />
  <store lat='25.068' lng='121.622' name='低卡屋' filename='25.068,121.622_26.html' />
  <store lat='25.087' lng='121.567' name='佳饌排骨便當' filename='25.087,121.567_27.html' />
  <store lat='24.975' lng='121.535' name='雅米義大利麵專賣店' filename='24.975,121.535_28.html' />
  <store lat='' lng='' name='小眼水果家' filename=',_29.html' />
  <store lat='23.131' lng='120.288' name='八鶴日本料理' filename='23.131,120.288_30.html' />
  <store lat='25.05' lng='121.529' name='**年貨**偶媽花生' filename='25.05,121.529_31.html' />
  <store lat='25.048' lng='121.448' name='50-PIZZA焗烤美食專賣' filename='25.048,121.448_32.html' />
  <store lat='' lng='' name='秀杏廣式越南小吃' filename=',_33.html' />
  <store lat='25.046' lng='121.518' name='露媽黑店團團購2團' filename='25.046,121.518_34.html' />
  <store lat='25.069' lng='121.452' name='鮮芋仙(100/12/12冬季版)' filename='25.069,121.452_35.html' />
  <store lat='25.083' lng='121.566' name='內湖第一家鹹酥雞' filename='25.083,121.566_36.html' />
  <store lat='24.982' lng='121.563' name='三媽臭臭鍋-木柵店' filename='24.982,121.563_37.html' />
  <store lat='22.981' lng='120.223' name='小地球咖啡_崇善店' filename='22.981,120.223_38.html' />
  <store lat='25.06' lng='121.551' name='Wooca Cake' filename='25.06,121.551_39.html' />
  <store lat='22.612' lng='120.299' name='讚讚好康樂團購' filename='22.612,120.299_40.html' />
  <store lat='24.966' lng='121.541' name='三媽臭臭鍋-新店北新店' filename='24.966,121.541_41.html' />
  <store lat='22.612' lng='120.299' name='讚讚好康個人購' filename='22.612,120.299_42.html' />
  <store lat='24.962' lng='121.227' name='及第燒臘便當' filename='24.962,121.227_43.html' />
  <store lat='25.102' lng='121.363' name='2012 急凍海鮮＆年貨' filename='25.102,121.363_44.html' />
  <store lat='24.966' lng='121.235' name='湉湉盒餐' filename='24.966,121.235_45.html' />
  <store lat='25.039' lng='121.567' name='天仁喫茶趣(信義A8)' filename='25.039,121.567_46.html' />
  <store lat='24.982' lng='121.42' name='85度C(樹林中華店)' filename='24.982,121.42_47.html' />
  <store lat='25.067' lng='121.459' name='全家咖啡團-五權一路(五股)' filename='25.067,121.459_48.html' />
  <store lat='24.167' lng='120.684' name='統元豆花專賣店' filename='24.167,120.684_49.html' />
  <store lat='24.908' lng='121.146' name='連師傅排骨' filename='24.908,121.146_50.html' />
  <store lat='24.789' lng='120.917' name='九降風黃金烏魚子年節團購優惠' filename='24.789,120.917_51.html' />
  <store lat='24.153' lng='120.662' name='牧場Grazing' filename='24.153,120.662_52.html' />
  <store lat='24.975' lng='121.543' name='客家燒仙草' filename='24.975,121.543_53.html' />
  <store lat='23.567' lng='119.568' name='郭記澎湖名產' filename='23.567,119.568_54.html' />
  <store lat='25.176' lng='121.442' name='郭全福喜餅' filename='25.176,121.442_55.html' />
  <store lat='24.952' lng='121.211' name='食點一刻' filename='24.952,121.211_56.html' />
  <store lat='24.984' lng='121.533' name='清心福全冷飲站-新店中正店' filename='24.984,121.533_57.html' />
  <store lat='24.17' lng='120.646' name='奉茶(青海店)' filename='24.17,120.646_58.html' />
  <store lat='' lng='' name='鴻記燒臘' filename=',_59.html' />
  <store lat='' lng='' name='北平餡餅粥' filename=',_60.html' />
  <store lat='' lng='' name='小漁村' filename=',_61.html' />
  <store lat='24.313' lng='121.294' name='梨山祥園雪梨' filename='24.313,121.294_62.html' />
  <store lat='25.061' lng='121.642' name='QQ甜品專賣(汐止)' filename='25.061,121.642_63.html' />
  <store lat='25.049' lng='121.535' name='晴美 ( 新版)' filename='25.049,121.535_64.html' />
  <store lat='' lng='' name='水里欣山園' filename=',_65.html' />
  <store lat='22.632' lng='120.293' name='85度C高雄七賢店' filename='22.632,120.293_66.html' />
  <store lat='25.019' lng='121.464' name='美味海苔' filename='25.019,121.464_67.html' />
  <store lat='25.039' lng='121.555' name='建弘雞肉飯' filename='25.039,121.555_68.html' />
  <store lat='25.003' lng='121.522' name='憶便當' filename='25.003,121.522_69.html' />
  <store lat='25.079' lng='121.464' name='明記便當' filename='25.079,121.464_70.html' />
  <store lat='24.966' lng='121.223' name='范媽媽客家麵食館' filename='24.966,121.223_71.html' />
  <store lat='25.043' lng='121.575' name='茶的魔手' filename='25.043,121.575_72.html' />
  <store lat='25.077' lng='121.395' name='賽門鄧普拉(林口店)' filename='25.077,121.395_73.html' />
  <store lat='25.087' lng='121.433' name='JJt茶' filename='25.087,121.433_74.html' />
  <store lat='22.99' lng='120.205' name='台南不老莊食品' filename='22.99,120.205_75.html' />
  <store lat='24.19' lng='120.613' name='水澤' filename='24.19,120.613_76.html' />
  <store lat='22.625' lng='120.285' name='麥當勞(鹽埕區大勇路)' filename='22.625,120.285_77.html' />
  <store lat='25.084' lng='121.567' name='大和和風小館' filename='25.084,121.567_78.html' />
  <store lat='25.129' lng='121.744' name='全家福元宵' filename='25.129,121.744_79.html' />
  <store lat='22.645' lng='120.343' name='樂去義大利麵' filename='22.645,120.343_80.html' />
  <store lat='22.645' lng='120.343' name='樂趣義大利麵' filename='22.645,120.343_81.html' />
  <store lat='24.981' lng='121.542' name='一番咖哩&amp;小火鍋專賣-新店北新店' filename='24.981,121.542_82.html' />
  <store lat='25.032' lng='121.559' name='薏爐香' filename='25.032,121.559_83.html' />
  <store lat='25.079' lng='121.583' name='澳門港式燒臘茶餐廳' filename='25.079,121.583_84.html' />
  <store lat='38.019' lng='138.362' name='紅豆湯' filename='38.019,138.362_85.html' />
  <store lat='25.068' lng='121.461' name='福州傻瓜麵' filename='25.068,121.461_86.html' />
  <store lat='24.16' lng='120.681' name='活力平方果汁坊' filename='24.16,120.681_87.html' />
  <store lat='25.042' lng='121.555' name='喜之坊圓片牛軋糖' filename='25.042,121.555_88.html' />
  <store lat='24.98' lng='121.537' name='唐嫂滷大腸麵線' filename='24.98,121.537_89.html' />
  <store lat='24.957' lng='121.224' name='三郎便當(中壢店)' filename='24.957,121.224_90.html' />
  <store lat='' lng='' name='** 正群牛肉麵水餃 ** (五股店)' filename=',_91.html' />
  <store lat='24.945' lng='121.498' name='阿樂師 坪林茶糖牛軋糖' filename='24.945,121.498_92.html' />
  <store lat='25.054' lng='121.511' name='金仙魚丸' filename='25.054,121.511_93.html' />
  <store lat='24.729' lng='121.117' name='藏綠石窯柴燒麵包' filename='24.729,121.117_94.html' />
  <store lat='25.027' lng='121.564' name='鬍鬚張北醫店 230108' filename='25.027,121.564_95.html' />
  <store lat='24.757' lng='121.75' name='札幌日式奶凍捲' filename='24.757,121.75_96.html' />
  <store lat='25.052' lng='121.564' name='水巷茶弄(南京三民店)' filename='25.052,121.564_97.html' />
  <store lat='24.978' lng='121.534' name='小林排骨專賣店' filename='24.978,121.534_98.html' />
  <store lat='25.019' lng='121.534' name='公館台一牛奶大王' filename='25.019,121.534_99.html' />
  <store lat='25.045' lng='121.621' name='Lavender圍巾標準' filename='25.045,121.621_100.html' />
  <store lat='25.045' lng='121.621' name='Lavender圍巾 Bling' filename='25.045,121.621_101.html' />
  <store lat='25.045' lng='121.621' name='Lavender圍巾人工貂一般' filename='25.045,121.621_102.html' />
  <store lat='25.045' lng='121.621' name='Lavender 圍衣罩衫' filename='25.045,121.621_103.html' />
  <store lat='25.045' lng='121.621' name='Lavender 手套' filename='25.045,121.621_104.html' />
  <store lat='25.045' lng='121.621' name='Lavender圍巾標準 混色' filename='25.045,121.621_105.html' />
  <store lat='25.004' lng='121.517' name='Q57食品-牛軋糖/碳烤地瓜' filename='25.004,121.517_106.html' />
  <store lat='24' lng='120.545' name='康氏農園' filename='24,120.545_107.html' />
  <store lat='24' lng='120.545' name='康氏農園優質葡萄' filename='24,120.545_108.html' />
  <store lat='23.011' lng='120.666' name='緁鈴麻~魔鬼曲線、調整塑身內衣系列' filename='23.011,120.666_109.html' />
  <store lat='' lng='' name='岡山薑母鴨' filename=',_110.html' />
  <store lat='24.98' lng='121.547' name='金學友麵食館' filename='24.98,121.547_111.html' />
  <store lat='25.038' lng='121.578' name='我愛茶' filename='25.038,121.578_112.html' />
  <store lat='' lng='' name='板本章魚小丸子(新竹)' filename=',_113.html' />
  <store lat='24.272' lng='120.569' name='小米香工作坊' filename='24.272,120.569_114.html' />
  <store lat='' lng='' name='閣和' filename=',_115.html' />
  <store lat='22.634' lng='120.286' name='統一星巴克愛河門市' filename='22.634,120.286_116.html' />
  <store lat='' lng='' name='藍棧咖啡' filename=',_117.html' />
  <store lat='23.993' lng='120.482' name='稻喜田牛揸糖' filename='23.993,120.482_118.html' />
  <store lat='24.98' lng='121.542' name='傳奇茶坊-北新店' filename='24.98,121.542_119.html' />
  <store lat='' lng='' name='林梅水果干' filename=',_120.html' />
  <store lat='24.766' lng='121.768' name='女兒傳' filename='24.766,121.768_121.html' />
  <store lat='23' lng='120.164' name='古堡劍獅爆餅-蝦餅' filename='23,120.164_122.html' />
  <store lat='25.069' lng='121.616' name='劉家高級日式火鍋料' filename='25.069,121.616_123.html' />
  <store lat='' lng='' name='鮮美味牛肉乾~~保證比金門的牛肉乾好吃' filename=',_124.html' />
  <store lat='25.042' lng='121.544' name='老媽臭臭鍋' filename='25.042,121.544_125.html' />
  <store lat='23.966' lng='120.961' name='《團購》名灸溫灸產品研發部' filename='23.966,120.961_126.html' />
  <store lat='25.03' lng='121.517' name='桃屋日本料理' filename='25.03,121.517_127.html' />
  <store lat='25.053' lng='121.558' name='品冠客家小館' filename='25.053,121.558_128.html' />
  <store lat='25.033' lng='121.545' name='龍華餐廳' filename='25.033,121.545_129.html' />
  <store lat='22.643' lng='120.609' name='屏科大薄鹽醬油' filename='22.643,120.609_130.html' />
  <store lat='25.051' lng='121.491' name='天使之屋' filename='25.051,121.491_131.html' />
  <store lat='24.87' lng='121.531' name='一品養生佛跳牆 (全素)' filename='24.87,121.531_132.html' />
  <store lat='24.872' lng='121.017' name='金三角南洋風味小館' filename='24.872,121.017_133.html' />
  <store lat='24.733' lng='121.09' name='田原味烘焙坊' filename='24.733,121.09_134.html' />
  <store lat='25.036' lng='121.557' name='喜之坊圓片牛軋糖' filename='25.036,121.557_135.html' />
  <store lat='24.561' lng='120.819' name='清新福全(府前店)' filename='24.561,120.819_136.html' />
  <store lat='24.99' lng='121.422' name='Mr.戴餐飲食尚店 (原小戴雞排)' filename='24.99,121.422_137.html' />
  <store lat='25.056' lng='121.363' name='周師傅燒肉飯' filename='25.056,121.363_138.html' />
  <store lat='25.052' lng='121.37' name='池上飯包(福鑫店)' filename='25.052,121.37_139.html' />
  <store lat='25.059' lng='121.368' name='悟饕林口復興店' filename='25.059,121.368_140.html' />
  <store lat='25.008' lng='121.523' name='好記食品◎山東桃酥' filename='25.008,121.523_141.html' />
  <store lat='25.034' lng='121.529' name='天仁茗茶' filename='25.034,121.529_142.html' />
  <store lat='25.023' lng='121.543' name='台南周氏冰鎮滷味 台北專賣店' filename='25.023,121.543_143.html' />
  <store lat='24.237' lng='120.558' name='日茂行-咔啦棒' filename='24.237,120.558_144.html' />
  <store lat='24.976' lng='121.537' name='草本茶集花草茶連鎖專賣店(新店民族店)' filename='24.976,121.537_145.html' />
  <store lat='24.993' lng='121.503' name='PONO波妹方便麵' filename='24.993,121.503_146.html' />
  <store lat='22.909' lng='120.581' name='澄蜜香小蕃茄' filename='22.909,120.581_147.html' />
  <store lat='24.233' lng='120.942' name='雲林花生自產自銷(吳)' filename='24.233,120.942_148.html' />
  <store lat='24.976' lng='121.323' name='珍Q屋冰品果汁屋' filename='24.976,121.323_149.html' />
  <store lat='25.034' lng='121.539' name='山玖鍋貼水餃' filename='25.034,121.539_150.html' />
  <store lat='25.033' lng='121.559' name='中越料理店' filename='25.033,121.559_151.html' />
  <store lat='25.101' lng='121.492' name='POPOBUNNY花花邦妮' filename='25.101,121.492_152.html' />
  <store lat='25.044' lng='121.546' name='香港新味燒腊店' filename='25.044,121.546_153.html' />
  <store lat='' lng='' name='朱媽媽的手路菜' filename=',_154.html' />
  <store lat='22.624' lng='120.318' name='※綜合類-蕃薯厝' filename='22.624,120.318_155.html' />
  <store lat='25.068' lng='121.625' name='美滿媽媽的手工糕餅' filename='25.068,121.625_156.html' />
  <store lat='22.993' lng='120.197' name='亞米' filename='22.993,120.197_157.html' />
  <store lat='25.055' lng='121.613' name='粵香園2011' filename='25.055,121.613_158.html' />
  <store lat='24.955' lng='121.539' name='新巴黎香草麻辣滷味' filename='24.955,121.539_159.html' />
  <store lat='25.079' lng='121.579' name='甜心園 傳統碳烤地瓜' filename='25.079,121.579_160.html' />
  <store lat='25.076' lng='121.576' name='御品香脆皮雞排(內湖江南店)' filename='25.076,121.576_161.html' />
  <store lat='24.952' lng='121.546' name='聖巴黎焦糖滷味' filename='24.952,121.546_162.html' />
  <store lat='25.04' lng='121.535' name='清心福全冷飲站-大安濟南店' filename='25.04,121.535_163.html' />
  <store lat='25.044' lng='121.549' name='糖村Sugar&amp;Spice' filename='25.044,121.549_164.html' />
  <store lat='24.968' lng='121.233' name='周大碗(福州店)' filename='24.968,121.233_165.html' />
  <store lat='24.798' lng='120.976' name='50嵐食品店新菜單' filename='24.798,120.976_166.html' />
  <store lat='25.066' lng='121.458' name='50嵐五工店' filename='25.066,121.458_167.html' />
  <store lat='25.024' lng='121.548' name='藏月' filename='25.024,121.548_168.html' />
  <store lat='25.059' lng='121.37' name='三顧茅廬' filename='25.059,121.37_169.html' />
  <store lat='25.042' lng='121.564' name='蘿雅義麵舖' filename='25.042,121.564_170.html' />
  <store lat='22.573' lng='120.3' name='●團購-錦 純手工地瓜酥' filename='22.573,120.3_171.html' />
  <store lat='' lng='' name='三姐臭臭鍋' filename=',_172.html' />
  <store lat='24.467' lng='120.767' name='阿財農產' filename='24.467,120.767_173.html' />
  <store lat='24.976' lng='121.537' name='池上木片便當' filename='24.976,121.537_174.html' />
  <store lat='24.805' lng='121.065' name='范財記香腸肉品' filename='24.805,121.065_175.html' />
  <store lat='24.999' lng='121.459' name='祥元排骨 (仁愛)' filename='24.999,121.459_176.html' />
  <store lat='25.222' lng='121.639' name='《團購》阿嬤ㄟ等路' filename='25.222,121.639_177.html' />
  <store lat='25.041' lng='121.576' name='Zebra斑馬牌不鏽鋼保溫杯' filename='25.041,121.576_178.html' />
  <store lat='25.063' lng='121.654' name='吉園壽司' filename='25.063,121.654_179.html' />
  <store lat='24.959' lng='121.219' name='好鮮屋' filename='24.959,121.219_180.html' />
  <store lat='25.017' lng='121.534' name='台大病毒崩' filename='25.017,121.534_181.html' />
  <store lat='25.08' lng='121.594' name='丸子公煮2012更新' filename='25.08,121.594_182.html' />
  <store lat='24.956' lng='121.346' name='鶯歌順謚健康蛋糕' filename='24.956,121.346_183.html' />
  <store lat='25.052' lng='121.455' name='豪記美食' filename='25.052,121.455_184.html' />
  <store lat='' lng='' name='藍家割包' filename=',_185.html' />
  <store lat='25.084' lng='121.565' name='剥骨鵝肉' filename='25.084,121.565_186.html' />
  <store lat='24.99' lng='121.427' name='戀煮一鍋粥' filename='24.99,121.427_187.html' />
  <store lat='25.105' lng='121.518' name='薡茶台北文林店' filename='25.105,121.518_188.html' />
  <store lat='24.678' lng='120.907' name='ㄚ文水餃' filename='24.678,120.907_189.html' />
  <store lat='25.002' lng='121.463' name='123精緻盒餐（中和忠孝店）' filename='25.002,121.463_190.html' />
  <store lat='' lng='' name='小山甜點市集(新年版)' filename=',_191.html' />
  <store lat='23.076' lng='120.294' name='手作功夫茶' filename='23.076,120.294_192.html' />
  <store lat='24.972' lng='121.542' name='廣東名門燒腊專賣店' filename='24.972,121.542_193.html' />
  <store lat='' lng='' name='豪記燒臘' filename=',_194.html' />
  <store lat='25.084' lng='121.567' name='貢茶 西湖站內湖路店' filename='25.084,121.567_195.html' />
  <store lat='24.961' lng='121.215' name='堂水巖茶飲-新明店' filename='24.961,121.215_196.html' />
  <store lat='24.987' lng='121.568' name='新園燒臘館-木柵店' filename='24.987,121.568_197.html' />
  <store lat='24.995' lng='121.427' name='三媽臭臭臭(樹林中山店)' filename='24.995,121.427_198.html' />
  <store lat='25.002' lng='121.498' name='日式太子蛋包飯' filename='25.002,121.498_199.html' />
  <store lat='25.053' lng='121.491' name='三重傳統集美' filename='25.053,121.491_200.html' />
  <store lat='25.091' lng='121.56' name='BEARD PAPA&#039;S日式泡(復興店)' filename='25.091,121.56_201.html' />
  <store lat='24.984' lng='121.423' name='黃師父日式麻糬紅豆餅' filename='24.984,121.423_202.html' />
  <store lat='25.081' lng='121.567' name='大花花式香腸.米腸.雞排' filename='25.081,121.567_203.html' />
  <store lat='24.788' lng='121.008' name='超級飯桶 (科園店)' filename='24.788,121.008_204.html' />
  <store lat='24.997' lng='121.485' name='新園燒臘館-新店中正店' filename='24.997,121.485_205.html' />
  <store lat='25.043' lng='121.569' name='阿宗魚翅肉羹' filename='25.043,121.569_206.html' />
  <store lat='25.043' lng='121.569' name='鮮茶道(松山永吉店)' filename='25.043,121.569_207.html' />
  <store lat='' lng='' name='同記吳排骨酥麵專賣店' filename=',_208.html' />
  <store lat='25.044' lng='121.569' name='五味臭臭鍋' filename='25.044,121.569_209.html' />
  <store lat='25.044' lng='121.569' name='世界豆漿大王' filename='25.044,121.569_210.html' />
  <store lat='25.042' lng='121.569' name='傷心酸辣粉' filename='25.042,121.569_211.html' />
  <store lat='25.102' lng='121.717' name='欣毅旺小籠湯包' filename='25.102,121.717_212.html' />
  <store lat='25.048' lng='121.556' name='羊暘珍品小吃' filename='25.048,121.556_213.html' />
  <store lat='25.084' lng='121.567' name='金玉堂小吃店' filename='25.084,121.567_214.html' />
  <store lat='25.084' lng='121.567' name='派克雞排(內湖店)' filename='25.084,121.567_215.html' />
  <store lat='22.638' lng='120.295' name='一杯茶團購' filename='22.638,120.295_216.html' />
  <store lat='25.045' lng='121.569' name='海豚灣盒餐店' filename='25.045,121.569_217.html' />
  <store lat='25.082' lng='121.569' name='韓涵屋' filename='25.082,121.569_218.html' />
  <store lat='25.028' lng='121.544' name='派克雞排' filename='25.028,121.544_219.html' />
  <store lat='25.039' lng='121.578' name='金仙蝦捲' filename='25.039,121.578_220.html' />
  <store lat='24.982' lng='121.42' name='鮮天下(樹林中華店)' filename='24.982,121.42_221.html' />
  <store lat='25.051' lng='121.289' name='2派克脆皮雞排(南崁店)' filename='25.051,121.289_222.html' />
  <store lat='25.091' lng='121.56' name='點燃生命之火_親職化兒童服務方案' filename='25.091,121.56_223.html' />
  <store lat='24.826' lng='121.001' name='《團購》手工花生糖' filename='24.826,121.001_224.html' />
  <store lat='' lng='' name='豪記排骨' filename=',_225.html' />
  <store lat='22.671' lng='120.507' name='李家火鍋' filename='22.671,120.507_226.html' />
  <store lat='24.19' lng='120.613' name='茶湯會 中科店' filename='24.19,120.613_227.html' />
  <store lat='25.083' lng='121.557' name='廣田洋果子' filename='25.083,121.557_228.html' />
  <store lat='24.188' lng='120.617' name='開源社雞排_中科店' filename='24.188,120.617_229.html' />
  <store lat='25.085' lng='121.561' name='CITY CAFÉ' filename='25.085,121.561_230.html' />
  <store lat='25.053' lng='121.555' name='禾園美食廚房' filename='25.053,121.555_231.html' />
  <store lat='25.055' lng='121.526' name='若茶之家-長春店' filename='25.055,121.526_232.html' />
  <store lat='25.055' lng='121.526' name='苦茶之家-長春店' filename='25.055,121.526_233.html' />
  <store lat='24.974' lng='121.534' name='鴉片粉圓-三民店' filename='24.974,121.534_234.html' />
  <store lat='24.777' lng='121.022' name='薏仁の家' filename='24.777,121.022_235.html' />
  <store lat='24.186' lng='120.623' name='超吉飯桶-永福店' filename='24.186,120.623_236.html' />
  <store lat='25.028' lng='121.556' name='李福記排骨' filename='25.028,121.556_237.html' />
  <store lat='22.627' lng='120.295' name='凃記胡椒餅' filename='22.627,120.295_238.html' />
  <store lat='24.879' lng='121.243' name='北田蒟蒻糙米捲(2012版)' filename='24.879,121.243_239.html' />
  <store lat='22.631' lng='120.315' name='辣堡臭臭鍋' filename='22.631,120.315_240.html' />
  <store lat='24.792' lng='120.993' name='新竹 賽門甜不辣' filename='24.792,120.993_241.html' />
  <store lat='25.062' lng='121.652' name='鬍鬚張（汐止新台五店）' filename='25.062,121.652_242.html' />
  <store lat='' lng='' name='阿好鹹粥' filename=',_243.html' />
  <store lat='24.982' lng='121.544' name='泰式小吃店' filename='24.982,121.544_244.html' />
  <store lat='25.062' lng='121.657' name='嘉義雞肉飯（汐止新興）' filename='25.062,121.657_245.html' />
  <store lat='25.081' lng='121.571' name='星巴克(西湖門市)' filename='25.081,121.571_246.html' />
  <store lat='22.627' lng='120.293' name='吾家休閑小棧' filename='22.627,120.293_247.html' />
  <store lat='24.086' lng='120.715' name='首相牌牙刷' filename='24.086,120.715_248.html' />
  <store lat='22.62' lng='120.297' name='Bobosa TEA &amp;COFFEE' filename='22.62,120.297_249.html' />
  <store lat='25' lng='121.416' name='買幾杯' filename='25,121.416_250.html' />
  <store lat='' lng='' name='蓉記燒臘肝腸/臘腸' filename=',_251.html' />
  <store lat='25.138' lng='121.503' name='橘子工坊-新北投中和店' filename='25.138,121.503_252.html' />
  <store lat='22.76' lng='121.144' name='蕃薯伯楊記家傳地瓜酥' filename='22.76,121.144_253.html' />
  <store lat='24.8' lng='120.989' name='我家牛排(新竹帝國店)' filename='24.8,120.989_254.html' />
  <store lat='24.797' lng='120.998' name='里昂義大利麵' filename='24.797,120.998_255.html' />
  <store lat='24.789' lng='121' name='阿根早點(新竹)' filename='24.789,121_256.html' />
  <store lat='24.798' lng='120.996' name='麵朝(清大)' filename='24.798,120.996_257.html' />
  <store lat='22.624' lng='120.27' name='湘園小吃店' filename='22.624,120.27_258.html' />
  <store lat='24.912' lng='121.183' name='CocCo都可茶飲 埔心文化店' filename='24.912,121.183_259.html' />
  <store lat='' lng='' name='稻香寶' filename=',_260.html' />
  <store lat='24.968' lng='121.233' name='人情味' filename='24.968,121.233_261.html' />
  <store lat='24.804' lng='120.965' name='熊手包' filename='24.804,120.965_262.html' />
  <store lat='24.786' lng='120.988' name='老窩咖啡館' filename='24.786,120.988_263.html' />
  <store lat='25.026' lng='121.554' name='窩心料理廚房 過年 滷味訂購單' filename='25.026,121.554_264.html' />
  <store lat='25.067' lng='121.583' name='愛弟豆花' filename='25.067,121.583_265.html' />
  <store lat='24.816' lng='120.974' name='蕃茄村漢堡-新竹光華東店' filename='24.816,120.974_266.html' />
  <store lat='24.796' lng='120.999' name='蝸牛蔥餅(新竹建功店)' filename='24.796,120.999_267.html' />
  <store lat='24.996' lng='121.483' name='香珍 鍋貼 水餃專賣店' filename='24.996,121.483_268.html' />
  <store lat='24.826' lng='121.009' name='百分比100%' filename='24.826,121.009_269.html' />
  <store lat='22.667' lng='120.499' name='屏東阿溜麵' filename='22.667,120.499_270.html' />
  <store lat='' lng='' name='C.up C+（台北連城店)' filename=',_271.html' />
  <store lat='25.102' lng='121.549' name='故宮-羅浮宮珍藏展門票' filename='25.102,121.549_272.html' />
  <store lat='' lng='' name='西湖紅豆餅' filename=',_273.html' />
  <store lat='22.631' lng='120.3' name='老江紅茶' filename='22.631,120.3_274.html' />
  <store lat='22.605' lng='120.332' name='天津味早餐專賣店' filename='22.605,120.332_275.html' />
  <store lat='25.174' lng='121.453' name='福家小廚 FAMILY KITCHEN' filename='25.174,121.453_276.html' />
  <store lat='' lng='' name='必勝客(八德店)' filename=',_277.html' />
  <store lat='25.062' lng='121.64' name='香香滷味' filename='25.062,121.64_278.html' />
  <store lat='23.077' lng='120.294' name='新市米里' filename='23.077,120.294_279.html' />
  <store lat='23.051' lng='120.182' name='水河伯豆花' filename='23.051,120.182_280.html' />
  <store lat='25.069' lng='121.614' name='Kama鬆餅~卡瑪鬆餅' filename='25.069,121.614_281.html' />
  <store lat='25.042' lng='121.505' name='KAKA龍蝦片' filename='25.042,121.505_282.html' />
  <store lat='24.99' lng='121.541' name='博士粥(廣東粥)' filename='24.99,121.541_283.html' />
  <store lat='25.059' lng='121.562' name='二馬蕃茄牛肉刀削麵館' filename='25.059,121.562_284.html' />
  <store lat='24.803' lng='120.969' name='火焰熱狗堡' filename='24.803,120.969_285.html' />
  <store lat='24.942' lng='121.534' name='直潭幸守糖' filename='24.942,121.534_286.html' />
  <store lat='' lng='' name='張媽媽牛肉麵' filename=',_287.html' />
  <store lat='' lng='' name='青麥香' filename=',_288.html' />
  <store lat='' lng='' name='香舍快餐' filename=',_289.html' />
  <store lat='24.804' lng='120.965' name='滿口快餐' filename='24.804,120.965_290.html' />
  <store lat='' lng='' name='過年送扮手禮 水果禮盒(棗子)' filename=',_291.html' />
  <store lat='' lng='' name='馨品園' filename=',_292.html' />
  <store lat='' lng='' name='八方快餐' filename=',_293.html' />
  <store lat='25.071' lng='121.666' name='越南美食' filename='25.071,121.666_294.html' />
  <store lat='' lng='' name='米吉米' filename=',_295.html' />
  <store lat='24.968' lng='121.436' name='黃金營養三明治' filename='24.968,121.436_296.html' />
  <store lat='24.43' lng='120.87' name='苗栗縣大湖地區農會-大湖酒莊' filename='24.43,120.87_297.html' />
  <store lat='25.076' lng='121.577' name='Bestie' filename='25.076,121.577_298.html' />
  <store lat='24.782' lng='121.023' name='COCO 園區二店' filename='24.782,121.023_299.html' />
  <store lat='24.804' lng='120.965' name='新竹清大 吳記蔥疏餅' filename='24.804,120.965_300.html' />
  <store lat='24.991' lng='121.426' name='CoCo都可茶飲(樹林博愛店)' filename='24.991,121.426_301.html' />
  <store lat='24.227' lng='120.65' name='懿品小珍' filename='24.227,120.65_302.html' />
  <store lat='25.033' lng='121.552' name='二呆飯糰' filename='25.033,121.552_303.html' />
  <store lat='22.644' lng='120.306' name='香港華園廣東粥' filename='22.644,120.306_304.html' />
  <store lat='22.641' lng='120.297' name='吐司先生' filename='22.641,120.297_305.html' />
  <store lat='22.642' lng='120.296' name='賴牛肉麵食館' filename='22.642,120.296_306.html' />
  <store lat='22.635' lng='120.298' name='欣安東越南美食館' filename='22.635,120.298_307.html' />
  <store lat='22.635' lng='120.299' name='日豐便當' filename='22.635,120.299_308.html' />
  <store lat='22.685' lng='120.316' name='豐宴自助精緻美食' filename='22.685,120.316_309.html' />
  <store lat='22.644' lng='120.308' name='曾正日式咖哩飯' filename='22.644,120.308_310.html' />
  <store lat='' lng='' name='【合家】手工麻花捲' filename=',_311.html' />
  <store lat='22.629' lng='120.308' name='元興居' filename='22.629,120.308_312.html' />
  <store lat='24.866' lng='121.213' name='一手私藏世界紅茶(龍潭店)' filename='24.866,121.213_313.html' />
  <store lat='22.615' lng='120.307' name='鮮樂思' filename='22.615,120.307_314.html' />
  <store lat='24.784' lng='121.015' name='呼拉貓早點兒' filename='24.784,121.015_315.html' />
  <store lat='25.061' lng='121.271' name='50嵐（桃園南崁店）' filename='25.061,121.271_316.html' />
  <store lat='25.057' lng='121.576' name='7-11 CITY CAFE' filename='25.057,121.576_317.html' />
  <store lat='25.058' lng='121.277' name='舞茶道（桃園南崁店）' filename='25.058,121.277_318.html' />
  <store lat='24.98' lng='121.541' name='藤本舖-大豐店' filename='24.98,121.541_319.html' />
  <store lat='25.082' lng='121.571' name='醬老大 脆蜜雞排 內湖411分店' filename='25.082,121.571_320.html' />
  <store lat='25.082' lng='121.571' name='醬老大 鐵板創意刈包 內湖411分店' filename='25.082,121.571_321.html' />
  <store lat='24.967' lng='121.541' name='鬆餅格子' filename='24.967,121.541_322.html' />
  <store lat='25.177' lng='121.448' name='只有排骨飯' filename='25.177,121.448_323.html' />
  <store lat='25.057' lng='121.363' name='鳥地方陝西小館' filename='25.057,121.363_324.html' />
  <store lat='24.975' lng='121.34' name='平面三層 活性碳 口罩 (永猷)' filename='24.975,121.34_325.html' />
  <store lat='25.042' lng='121.566' name='鈺膳園(麵線王)' filename='25.042,121.566_326.html' />
  <store lat='22.64' lng='120.296' name='小南老蘇便當(自立店)' filename='22.64,120.296_327.html' />
  <store lat='25.035' lng='121.575' name='花路咪冰品熱食' filename='25.035,121.575_328.html' />
  <store lat='25.069' lng='121.452' name='鮮芋仙_五股工業區店' filename='25.069,121.452_329.html' />
  <store lat='24.782' lng='121.023' name='曾家乾麵 關東店' filename='24.782,121.023_330.html' />
  <store lat='24.778' lng='121.022' name='金山街無店名小吃' filename='24.778,121.022_331.html' />
  <store lat='25.074' lng='121.579' name='金鐡板' filename='25.074,121.579_332.html' />
  <store lat='25.083' lng='121.568' name='宜品福州乾拌麵' filename='25.083,121.568_333.html' />
  <store lat='' lng='' name='領鮮複合餐飲' filename=',_334.html' />
  <store lat='25.069' lng='121.584' name='2派克雞排瑞光店' filename='25.069,121.584_335.html' />
  <store lat='24.961' lng='121.223' name='舞麵館' filename='24.961,121.223_336.html' />
  <store lat='24.245' lng='120.746' name='團購狗糧救救流浪狗' filename='24.245,120.746_337.html' />
  <store lat='22.621' lng='120.309' name='池上便當-苓雅店' filename='22.621,120.309_338.html' />
  <store lat='24.983' lng='121.539' name='湘之味便當(新店市民權路)' filename='24.983,121.539_339.html' />
  <store lat='22.994' lng='120.187' name='黃金泡菜 慶家食品行' filename='22.994,120.187_340.html' />
  <store lat='25.057' lng='121.509' name='大稻埕排骨便當店' filename='25.057,121.509_341.html' />
  <store lat='25.047' lng='121.615' name='三媽臭臭鍋(南港店)' filename='25.047,121.615_342.html' />
  <store lat='24.973' lng='121.54' name='粥師傅 (新店區)' filename='24.973,121.54_343.html' />
  <store lat='24.882' lng='121.292' name='香草Amy手工乳酪蛋糕-單一' filename='24.882,121.292_344.html' />
  <store lat='24.309' lng='120.723' name='大苑子茶飲(后里店)' filename='24.309,120.723_345.html' />
  <store lat='25.045' lng='121.541' name='無老鍋(市民店)' filename='25.045,121.541_346.html' />
  <store lat='' lng='' name='好吃的蔥餅' filename=',_347.html' />
  <store lat='25.051' lng='121.523' name='廣東鴨莊' filename='25.051,121.523_348.html' />
  <store lat='24.996' lng='121.486' name='吃得巧海苔飯卷(葷/素)' filename='24.996,121.486_349.html' />
  <store lat='24.777' lng='121.021' name='O’life' filename='24.777,121.021_350.html' />
  <store lat='25.051' lng='121.517' name='午食園便當' filename='25.051,121.517_351.html' />
  <store lat='25.151' lng='121.771' name='come buy海大店' filename='25.151,121.771_352.html' />
  <store lat='25.17' lng='121.446' name='黑店' filename='25.17,121.446_353.html' />
  <store lat='24.788' lng='120.967' name='嘉味火雞肉飯-新竹南大店' filename='24.788,120.967_354.html' />
  <store lat='25.139' lng='121.789' name='come buy新豐店' filename='25.139,121.789_355.html' />
  <store lat='25.09' lng='121.523' name='1點點' filename='25.09,121.523_356.html' />
  <store lat='22.998' lng='120.195' name='雙品香酥豬排(金華店)' filename='22.998,120.195_357.html' />
  <store lat='25' lng='121.478' name='塔克章魚燒' filename='25,121.478_358.html' />
  <store lat='24.941' lng='121.246' name='蘋果203早午餐' filename='24.941,121.246_359.html' />
  <store lat='24.804' lng='120.979' name='美味麵食館' filename='24.804,120.979_360.html' />
  <store lat='24.779' lng='120.986' name='政港燒臘店' filename='24.779,120.986_361.html' />
  <store lat='25.069' lng='121.585' name='五十嵐' filename='25.069,121.585_362.html' />
  <store lat='22.756' lng='121.153' name='和記古早味地瓜酥' filename='22.756,121.153_363.html' />
  <store lat='25.03' lng='121.517' name='桃屋便當200元' filename='25.03,121.517_364.html' />
  <store lat='25.012' lng='121.474' name='松田食堂' filename='25.012,121.474_365.html' />
  <store lat='22.645' lng='120.306' name='50嵐(十全店)' filename='22.645,120.306_366.html' />
  <store lat='24.983' lng='121.543' name='85度C -新店中興店' filename='24.983,121.543_367.html' />
  <store lat='25.08' lng='121.578' name='金仙一品蝦捲店' filename='25.08,121.578_368.html' />
  <store lat='24.957' lng='121.226' name='聚豐園' filename='24.957,121.226_369.html' />
  <store lat='25.05' lng='121.577' name='熊的食 (熊掌包)' filename='25.05,121.577_370.html' />
  <store lat='25.055' lng='121.372' name='２派克脆皮雞排（林口復興店）' filename='25.055,121.372_371.html' />
  <store lat='25.04' lng='121.577' name='印度風' filename='25.04,121.577_372.html' />
  <store lat='23.543' lng='120.349' name='新港生炒鴨肉羹' filename='23.543,120.349_373.html' />
  <store lat='25.084' lng='121.573' name='御饕便當' filename='25.084,121.573_374.html' />
  <store lat='24.989' lng='121.567' name='萬丹黑糖糕' filename='24.989,121.567_375.html' />
  <store lat='24.778' lng='121.022' name='新竹珍品湯包' filename='24.778,121.022_376.html' />
  <store lat='22.646' lng='120.351' name='斯味漢堡正修店' filename='22.646,120.351_377.html' />
  <store lat='22.628' lng='120.295' name='7-11 CITY CAFE(前金門市)' filename='22.628,120.295_378.html' />
  <store lat='25.011' lng='121.477' name='團購小麵館' filename='25.011,121.477_379.html' />
  <store lat='24.982' lng='121.563' name='四海遊龍鍋貼專賣店' filename='24.982,121.563_380.html' />
  <store lat='22.997' lng='120.199' name='阿芳肉飯現煮虱目魚' filename='22.997,120.199_381.html' />
  <store lat='25.054' lng='121.371' name='科博館' filename='25.054,121.371_382.html' />
  <store lat='24.796' lng='120.998' name='小川堂' filename='24.796,120.998_383.html' />
  <store lat='22.627' lng='120.293' name='台南土屯魚焿' filename='22.627,120.293_384.html' />
  <store lat='25.042' lng='121.563' name='正德小吃店(原喜緣)' filename='25.042,121.563_385.html' />
  <store lat='24.139' lng='120.613' name='喫茶小舖(忠勇店)' filename='24.139,120.613_386.html' />
  <store lat='23.126' lng='120.294' name='嘉義火雞肉飯' filename='23.126,120.294_387.html' />
  <store lat='24.083' lng='120.584' name='寶珍香餅店' filename='24.083,120.584_388.html' />
  <store lat='25.038' lng='121.578' name='3Q脆皮雞排' filename='25.038,121.578_389.html' />
  <store lat='24.977' lng='121.413' name='50嵐(頂埔店)' filename='24.977,121.413_390.html' />
  <store lat='25.049' lng='121.522' name='口福小吃' filename='25.049,121.522_391.html' />
  <store lat='22.616' lng='120.307' name='2派克脆皮雞排' filename='22.616,120.307_392.html' />
  <store lat='25.037' lng='121.578' name='蚵讚' filename='25.037,121.578_393.html' />
  <store lat='25.056' lng='121.362' name='貴族派雞排(長庚)' filename='25.056,121.362_394.html' />
  <store lat='22.639' lng='120.328' name='＊多福豆花' filename='22.639,120.328_395.html' />
  <store lat='25.052' lng='121.522' name='采岩堂' filename='25.052,121.522_396.html' />
  <store lat='25.058' lng='121.364' name='玉川屋' filename='25.058,121.364_397.html' />
  <store lat='25.07' lng='121.613' name='紅景天活力漢飲 內湖康寧店' filename='25.07,121.613_398.html' />
  <store lat='25.029' lng='121.577' name='Clavie 水鑽筆' filename='25.029,121.577_399.html' />
  <store lat='22.584' lng='120.322' name='啊里啊豆(前鎮區)' filename='22.584,120.322_400.html' />
  <store lat='25.109' lng='121.844' name='九份珍味坊' filename='25.109,121.844_401.html' />
  <store lat='23.036' lng='120.307' name='胡椒餅 (新市)' filename='23.036,120.307_402.html' />
  <store lat='23.078' lng='120.295' name='嘉昌雞肉飯 (新市店)' filename='23.078,120.295_403.html' />
  <store lat='25.068' lng='121.586' name='Mini食堂' filename='25.068,121.586_404.html' />
  <store lat='' lng='' name='淘寶長袖短袖傘洋' filename=',_405.html' />
  <store lat='25.003' lng='121.505' name='杯子物語' filename='25.003,121.505_406.html' />
  <store lat='' lng='' name='大夜聚餐' filename=',_407.html' />
  <store lat='' lng='' name='牛魔王御品便當' filename=',_408.html' />
  <store lat='25.025' lng='121.529' name='阿諾可麗餅' filename='25.025,121.529_409.html' />
  <store lat='25.063' lng='121.645' name='海苔先生' filename='25.063,121.645_410.html' />
  <store lat='24.871' lng='120.996' name='德冠蔥蔬餅' filename='24.871,120.996_411.html' />
  <store lat='25.012' lng='121.47' name='名香快餐' filename='25.012,121.47_412.html' />
  <store lat='25.052' lng='121.536' name='梅子餐廳' filename='25.052,121.536_413.html' />
  <store lat='25.043' lng='121.569' name='玉到愛 Happiness♥Taste' filename='25.043,121.569_414.html' />
  <store lat='22.572' lng='120.318' name='楊記傳統饅頭' filename='22.572,120.318_415.html' />
  <store lat='24.18' lng='120.637' name='50嵐(黎明二店)' filename='24.18,120.637_416.html' />
  <store lat='24.977' lng='121.548' name='50嵐-新店北新店' filename='24.977,121.548_417.html' />
  <store lat='24.995' lng='121.424' name='大呼過癮(樹林店)' filename='24.995,121.424_418.html' />
  <store lat='25.082' lng='121.572' name='珍饌正傳統四神湯（內湖）' filename='25.082,121.572_419.html' />
  <store lat='24.982' lng='121.561' name='50嵐-木新店' filename='24.982,121.561_420.html' />
  <store lat='25.059' lng='121.562' name='二馬蕃茄牛肉刀削麵館' filename='25.059,121.562_421.html' />
  <store lat='22.663' lng='120.305' name='阿亮香雞排~高雄明華店' filename='22.663,120.305_422.html' />
  <store lat='24.839' lng='121.013' name='漢霖素食館' filename='24.839,121.013_423.html' />
  <store lat='24.839' lng='121.012' name='上臻園私房料理' filename='24.839,121.012_424.html' />
  <store lat='24.996' lng='121.463' name='板橋國慶池上木片便當' filename='24.996,121.463_425.html' />
  <store lat='25.071' lng='121.589' name='ㄉㄨㄞ ㄉㄨㄞ 嫩仙草【總店】' filename='25.071,121.589_426.html' />
  <store lat='22.633' lng='120.324' name='亞米自助美食館' filename='22.633,120.324_427.html' />
  <store lat='24.027' lng='120.94' name='Y 泉果園' filename='24.027,120.94_428.html' />
  <store lat='25.001' lng='121.474' name='御泉京茶山' filename='25.001,121.474_429.html' />
  <store lat='24.81' lng='121.039' name='愛康環保抗菌衛生棉' filename='24.81,121.039_430.html' />
  <store lat='22.644' lng='120.332' name='橘子工坊(高雄大昌店)' filename='22.644,120.332_431.html' />
  <store lat='22.984' lng='120.215' name='LADY MAMA(台南)' filename='22.984,120.215_432.html' />
  <store lat='' lng='' name='台北(江)麻辣臭豆腐專賣舖' filename=',_433.html' />
  <store lat='40.939' lng='-73.82' name='三代家傳涼麵' filename='40.939,-73.82_434.html' />
  <store lat='' lng='' name='Juicy 脆皮雞排' filename=',_435.html' />
  <store lat='' lng='' name='禮作坊' filename=',_436.html' />
  <store lat='24.785' lng='121.015' name='貢茶-新竹光復' filename='24.785,121.015_437.html' />
  <store lat='25.044' lng='121.522' name='93刀削麵館' filename='25.044,121.522_438.html' />
  <store lat='25.082' lng='121.578' name='陳記鍋燒麵（內湖）' filename='25.082,121.578_439.html' />
  <store lat='' lng='' name='GeGeGe鬼太郎的妖怪樂園' filename=',_440.html' />
  <store lat='25.079' lng='121.58' name='尚品池上飯包' filename='25.079,121.58_441.html' />
  <store lat='23.471' lng='120.443' name='鄉旭‧手作‧點心坊' filename='23.471,120.443_442.html' />
  <store lat='24.994' lng='121.425' name='鐵板城(保安店)' filename='24.994,121.425_443.html' />
  <store lat='24.999' lng='121.459' name='微笑45' filename='24.999,121.459_444.html' />
  <store lat='22.981' lng='120.223' name='拓緣坊素食館' filename='22.981,120.223_445.html' />
  <store lat='24.978' lng='121.551' name='CITY CAFÉ_新寶橋門市' filename='24.978,121.551_446.html' />
  <store lat='25.083' lng='121.567' name='內湖 CoCo都可' filename='25.083,121.567_447.html' />
  <store lat='' lng='' name='Adidas林書豪球衣' filename=',_448.html' />
  <store lat='25.051' lng='121.458' name='台灣新雞王(新莊福壽店)' filename='25.051,121.458_449.html' />
  <store lat='25.084' lng='121.567' name='香港燒臘&amp;廣東粥' filename='25.084,121.567_450.html' />
  <store lat='25.057' lng='121.616' name='童心未泯(可愛童裝)' filename='25.057,121.616_451.html' />
  <store lat='22.983' lng='120.227' name='古都碗粿' filename='22.983,120.227_452.html' />
  <store lat='25.129' lng='121.742' name='連珍糕餅店(基隆)' filename='25.129,121.742_453.html' />
  <store lat='25.002' lng='121.409' name='振頤軒食品企業有限公司' filename='25.002,121.409_454.html' />
  <store lat='22.994' lng='120.207' name='NOMU' filename='22.994,120.207_455.html' />
  <store lat='25.08' lng='121.577' name='阿華炒麵' filename='25.08,121.577_456.html' />
  <store lat='25.051' lng='121.523' name='八方雲集--天津' filename='25.051,121.523_457.html' />
  <store lat='24.185' lng='120.574' name='ruru su' filename='24.185,120.574_458.html' />
  <store lat='25.082' lng='121.571' name='妙音素食' filename='25.082,121.571_459.html' />
  <store lat='22.635' lng='120.297' name='高雄進興麵線羹' filename='22.635,120.297_460.html' />
  <store lat='25.044' lng='121.515' name='悅湘蛋包飯' filename='25.044,121.515_461.html' />
  <store lat='25.06' lng='121.354' name='雲林排骨' filename='25.06,121.354_462.html' />
  <store lat='22.003' lng='120.744' name='鄉村冬粉鴨' filename='22.003,120.744_463.html' />
  <store lat='22.623' lng='120.294' name='茶莊園' filename='22.623,120.294_464.html' />
  <store lat='22.569' lng='120.358' name='馬芬麵包' filename='22.569,120.358_465.html' />
  <store lat='24.975' lng='121.544' name='台灣第一香-雞排店' filename='24.975,121.544_466.html' />
  <store lat='23.077' lng='120.294' name='歇腳亭-新市華興店' filename='23.077,120.294_467.html' />
  <store lat='' lng='' name='九如珍品' filename=',_468.html' />
  <store lat='25.001' lng='121.463' name='池上口味木盒便當' filename='25.001,121.463_469.html' />
  <store lat='22.62' lng='120.296' name='嘴呷味蜂蜜紅豆餅' filename='22.62,120.296_470.html' />
  <store lat='24.777' lng='121.021' name='大判燒' filename='24.777,121.021_471.html' />
  <store lat='25.045' lng='121.453' name='口感創意飲品專賣店' filename='25.045,121.453_472.html' />
  <store lat='24.82' lng='120.977' name='外送囧小子' filename='24.82,120.977_473.html' />
  <store lat='25.028' lng='121.564' name='大苑子茶飲專賣店--莊敬店' filename='25.028,121.564_474.html' />
  <store lat='25.029' lng='121.554' name='慕茶客通化店' filename='25.029,121.554_475.html' />
  <store lat='23.131' lng='120.302' name='達美樂Pizza(善化南科店)' filename='23.131,120.302_476.html' />
  <store lat='24.243' lng='120.561' name='沙鹿店-清玉' filename='24.243,120.561_477.html' />
  <store lat='25.029' lng='121.517' name='東鉅美食' filename='25.029,121.517_478.html' />
  <store lat='25.026' lng='121.129' name='鮮天下(文林店)' filename='25.026,121.129_479.html' />
  <store lat='25.032' lng='121.544' name='大井烤茶(大安店)' filename='25.032,121.544_480.html' />
  <store lat='24.797' lng='120.998' name='清大 小洞天' filename='24.797,120.998_481.html' />
  <store lat='22.978' lng='120.181' name='依蕾特光代冷藏食品工業有限公司' filename='22.978,120.181_482.html' />
  <store lat='25.062' lng='121.654' name='COMEBUY（新台五店）' filename='25.062,121.654_483.html' />
  <store lat='24.237' lng='120.563' name='喬治派克Cafe&amp;Tea' filename='24.237,120.563_484.html' />
  <store lat='25.07' lng='121.639' name='豬腳將軍PIG&#039;S LEG GENERA' filename='25.07,121.639_485.html' />
  <store lat='24.907' lng='121.176' name='野味碳烤燒肉飯（梅獅店）' filename='24.907,121.176_486.html' />
  <store lat='23.95' lng='120.69' name='五十嵐永和中正店' filename='23.95,120.69_487.html' />
  <store lat='23.038' lng='120.308' name='老街炒飯' filename='23.038,120.308_488.html' />
  <store lat='25.03' lng='121.517' name='便當' filename='25.03,121.517_489.html' />
  <store lat='25.049' lng='121.558' name='于記杏仁豆腐' filename='25.049,121.558_490.html' />
  <store lat='22.644' lng='120.299' name='吳家紅茶冰' filename='22.644,120.299_491.html' />
  <store lat='25.059' lng='121.37' name='活力營養三明治' filename='25.059,121.37_492.html' />
  <store lat='24.807' lng='120.976' name='河堤上的貓(新竹)' filename='24.807,120.976_493.html' />
  <store lat='' lng='' name='萬里漁產品-魷魚絲' filename=',_494.html' />
  <store lat='24.983' lng='121.54' name='MOS BURGER 摩斯早餐' filename='24.983,121.54_495.html' />
  <store lat='24.184' lng='120.621' name='正忠排骨飯-東興店' filename='24.184,120.621_496.html' />
  <store lat='25.047' lng='121.514' name='甘萃鮮飲茶' filename='25.047,121.514_497.html' />
  <store lat='24.145' lng='120.653' name='太太太師傅中式便當專賣' filename='24.145,120.653_498.html' />
  <store lat='25.03' lng='121.516' name='吉坤便當屋' filename='25.03,121.516_499.html' />
  <store lat='24.974' lng='121.236' name='夾克起司馬鈴薯' filename='24.974,121.236_500.html' />
  <store lat='24.82' lng='120.967' name='健康食品-清神茶' filename='24.82,120.967_501.html' />
  <store lat='25.069' lng='121.593' name='貢茶 (民權東路店)' filename='25.069,121.593_502.html' />
  <store lat='25.005' lng='121.461' name='香垣 日式手工現做熱御飯團' filename='25.005,121.461_503.html' />
  <store lat='25.044' lng='121.508' name='西門大雕燒' filename='25.044,121.508_504.html' />
  <store lat='24.796' lng='120.999' name='新竹板本章魚燒小丸子' filename='24.796,120.999_505.html' />
  <store lat='22.625' lng='120.303' name='藍舍咖啡(文橫店)' filename='22.625,120.303_506.html' />
  <store lat='24.688' lng='120.88' name='大苑子 (竹南光復店)' filename='24.688,120.88_507.html' />
  <store lat='24.998' lng='121.498' name='得貝居酒屋(食堂)' filename='24.998,121.498_508.html' />
  <store lat='' lng='' name='綠野芳蹤烘培坊' filename=',_509.html' />
  <store lat='25.09' lng='121.523' name='半月燒 (士林店)' filename='25.09,121.523_510.html' />
  <store lat='25.052' lng='121.553' name='香港錦鴻燒臘' filename='25.052,121.553_511.html' />
  <store lat='' lng='' name='iBake艾貝克有機手工烘培' filename=',_512.html' />
  <store lat='25.044' lng='121.546' name='小林麵食館' filename='25.044,121.546_513.html' />
  <store lat='25.059' lng='121.521' name='燕山湯圓' filename='25.059,121.521_514.html' />
  <store lat='25.056' lng='121.611' name='斐僑素食' filename='25.056,121.611_515.html' />
  <store lat='24.995' lng='121.319' name='金安徽麵館' filename='24.995,121.319_516.html' />
  <store lat='24.799' lng='120.99' name='鮮都湯包麵食' filename='24.799,120.99_517.html' />
  <store lat='25.034' lng='121.556' name='BossRice飯老闆' filename='25.034,121.556_518.html' />
  <store lat='25.04' lng='121.291' name='樺知鄉烘焙工坊' filename='25.04,121.291_519.html' />
  <store lat='24.727' lng='121.087' name='名屋喜餅蛋糕' filename='24.727,121.087_520.html' />
  <store lat='25.056' lng='121.51' name='三發包子點心總鋪' filename='25.056,121.51_521.html' />
  <store lat='25.03' lng='121.517' name='生魚片蓋飯' filename='25.03,121.517_522.html' />
  <store lat='25.044' lng='121.569' name='第一劇場魚丸店' filename='25.044,121.569_523.html' />
  <store lat='' lng='' name='球球燴飯' filename=',_524.html' />
  <store lat='25.061' lng='121.27' name='橘子工坊(桃園南崁店)' filename='25.061,121.27_525.html' />
  <store lat='24.804' lng='120.965' name='淵明水蒸蛋糕' filename='24.804,120.965_526.html' />
  <store lat='24.679' lng='121.768' name='宜蘭諾貝爾芝士鬆糕' filename='24.679,121.768_527.html' />
  <store lat='25.051' lng='121.523' name='古都' filename='25.051,121.523_528.html' />
  <store lat='24.679' lng='121.768' name='諾貝爾食品股份有限公司' filename='24.679,121.768_529.html' />
  <store lat='24.835' lng='121.016' name='品緣健康果汁屋-竹北店' filename='24.835,121.016_530.html' />
  <store lat='25.075' lng='121.585' name='周董燒肉飯（陽光店）' filename='25.075,121.585_531.html' />
  <store lat='24.808' lng='120.966' name='飛龍便當' filename='24.808,120.966_532.html' />
  <store lat='24.238' lng='120.563' name='Mr.Wish(沙鹿中山店)' filename='24.238,120.563_533.html' />
  <store lat='22.626' lng='120.283' name='三郎麵包店' filename='22.626,120.283_534.html' />
  <store lat='25.078' lng='121.393' name='口感創意飲品專賣店-林口老街店' filename='25.078,121.393_535.html' />
  <store lat='24.82' lng='120.967' name='潔膚霜, 潔膚液' filename='24.82,120.967_536.html' />
  <store lat='25.048' lng='121.555' name='津饌' filename='25.048,121.555_537.html' />
  <store lat='25.019' lng='121.479' name='50嵐 (台北縣總店)' filename='25.019,121.479_538.html' />
  <store lat='25.081' lng='121.573' name='黑丸嫩仙草(內湖店)' filename='25.081,121.573_539.html' />
  <store lat='24.796' lng='120.959' name='新竹 憶客披薩' filename='24.796,120.959_540.html' />
  <store lat='25.081' lng='121.57' name='漢堡王-西湖店' filename='25.081,121.57_541.html' />
  <store lat='23.083' lng='120.3' name='開源社香雞排 (新市店)' filename='23.083,120.3_542.html' />
  <store lat='23.078' lng='120.292' name='喜咿雞' filename='23.078,120.292_543.html' />
  <store lat='25.06' lng='121.578' name='麻卡米卡爆米花' filename='25.06,121.578_544.html' />
  <store lat='23.083' lng='120.3' name='珍記手工烙餅' filename='23.083,120.3_545.html' />
  <store lat='23.077' lng='120.294' name='古味軒豆花' filename='23.077,120.294_546.html' />
  <store lat='23.083' lng='120.3' name='天下滷味' filename='23.083,120.3_547.html' />
  <store lat='23.13' lng='120.294' name='上品麵食館' filename='23.13,120.294_548.html' />
  <store lat='23.132' lng='120.29' name='組魷魚羊肉羹' filename='23.132,120.29_549.html' />
  <store lat='23.083' lng='120.3' name='如意牛肉麵' filename='23.083,120.3_550.html' />
  <store lat='23.132' lng='120.29' name='鹽水意麵' filename='23.132,120.29_551.html' />
  <store lat='23.077' lng='120.295' name='品芳料理便當' filename='23.077,120.295_552.html' />
  <store lat='23.083' lng='120.3' name='米香便當' filename='23.083,120.3_553.html' />
  <store lat='23.077' lng='120.294' name='欣葉便當' filename='23.077,120.294_554.html' />
  <store lat='23.083' lng='120.3' name='玖玖美食' filename='23.083,120.3_555.html' />
  <store lat='23.075' lng='120.293' name='超級飯桶 (新市店)' filename='23.075,120.293_556.html' />
  <store lat='' lng='' name='起司地窖^__^' filename=',_557.html' />
  <store lat='24.187' lng='120.595' name='布列克生巧克力' filename='24.187,120.595_558.html' />
  <store lat='24.225' lng='120.558' name='麥當勞都是為你' filename='24.225,120.558_559.html' />
  <store lat='25.032' lng='121.559' name='Mos Burger信義店' filename='25.032,121.559_560.html' />
  <store lat='25.069' lng='121.664' name='水巷茶弄（汐止忠孝店）' filename='25.069,121.664_561.html' />
  <store lat='25.02' lng='121.555' name='仁川韓式烤肉拌飯(六張犁)' filename='25.02,121.555_562.html' />
  <store lat='25.077' lng='121.577' name='魯齊' filename='25.077,121.577_563.html' />
  <store lat='' lng='' name='金太郎' filename=',_564.html' />
  <store lat='22.99' lng='120.192' name='小南老蘇排骨便當(金華店).' filename='22.99,120.192_565.html' />
  <store lat='24.177' lng='120.645' name='小順豐義式美食' filename='24.177,120.645_566.html' />
  <store lat='25.035' lng='121.546' name='強記港式小館' filename='25.035,121.546_567.html' />
  <store lat='22.904' lng='120.541' name='阿亮香雞排(高雄自強與苓雅路)' filename='22.904,120.541_568.html' />
  <store lat='25.008' lng='121.486' name='八方雲集-中和立德店' filename='25.008,121.486_569.html' />
  <store lat='25.051' lng='121.579' name='顏玲麵線' filename='25.051,121.579_570.html' />
  <store lat='' lng='' name='折疊水餃鯨鑽包(顏色隨機出)' filename=',_571.html' />
  <store lat='25.028' lng='121.543' name='關山便當 復興店' filename='25.028,121.543_572.html' />
  <store lat='23' lng='120.228' name='青詩越南河粉' filename='23,120.228_573.html' />
  <store lat='24.973' lng='121.543' name='山茶雲南小館' filename='24.973,121.543_574.html' />
  <store lat='25.049' lng='121.526' name='雲泰小品' filename='25.049,121.526_575.html' />
  <store lat='25.049' lng='121.523' name='名緯中日快餐店' filename='25.049,121.523_576.html' />
  <store lat='25.049' lng='121.524' name='元亭小館' filename='25.049,121.524_577.html' />
  <store lat='25.05' lng='121.522' name='長安精緻全自助餐' filename='25.05,121.522_578.html' />
  <store lat='24.816' lng='121.028' name='美味食舖' filename='24.816,121.028_579.html' />
  <store lat='23.334' lng='120.459' name='雲峰亭-東山咖啡' filename='23.334,120.459_580.html' />
  <store lat='24.801' lng='120.967' name='百善坊' filename='24.801,120.967_581.html' />
  <store lat='' lng='' name='小牛旅行社' filename=',_582.html' />
  <store lat='25.004' lng='121.493' name='巧味麵館' filename='25.004,121.493_583.html' />
  <store lat='23' lng='120.162' name='阿布丁丁' filename='23,120.162_584.html' />
  <store lat='25.05' lng='121.575' name='焗烤薯薯' filename='25.05,121.575_585.html' />
  <store lat='22.63' lng='120.303' name='瑞暘行' filename='22.63,120.303_586.html' />
  <store lat='' lng='' name='千里尋臭豆腐' filename=',_587.html' />
  <store lat='25.033' lng='121.433' name='東區麻辣臭豆腐' filename='25.033,121.433_588.html' />
  <store lat='24.225' lng='120.558' name='麥當勞都是為你(簡易版)' filename='24.225,120.558_589.html' />
  <store lat='24.975' lng='121.551' name='豆酥朋' filename='24.975,121.551_590.html' />
  <store lat='22.605' lng='120.328' name='派克脆皮雞排-高雄瑞隆' filename='22.605,120.328_591.html' />
  <store lat='22.595' lng='120.328' name='派克脆皮雞排(鳳山自強店)' filename='22.595,120.328_592.html' />
  <store lat='22.617' lng='120.297' name='小上海香酥雞-高雄苓雅' filename='22.617,120.297_593.html' />
  <store lat='' lng='' name='日出乳酪蛋糕' filename=',_594.html' />
  <store lat='25.103' lng='121.245' name='Tea&#039;s原味-桃園大園店' filename='25.103,121.245_595.html' />
  <store lat='24.226' lng='120.647' name='清玉大雅店' filename='24.226,120.647_596.html' />
  <store lat='25.076' lng='121.576' name='御品香脆皮雞排(只有雞排版)' filename='25.076,121.576_597.html' />
  <store lat='' lng='' name='沈家涼麵、魚丸店' filename=',_598.html' />
  <store lat='25.037' lng='121.578' name='滷大腸麵線甜不辣' filename='25.037,121.578_599.html' />
  <store lat='25.038' lng='121.578' name='粥師傅' filename='25.038,121.578_600.html' />
  <store lat='25.075' lng='121.577' name='螺絲漢堡' filename='25.075,121.577_601.html' />
  <store lat='25.174' lng='121.451' name='OCoCo' filename='25.174,121.451_602.html' />
  <store lat='24.975' lng='121.536' name='丹堤咖啡 (新店威盛店)' filename='24.975,121.536_603.html' />
  <store lat='' lng='' name='洪記涼麵' filename=',_604.html' />
  <store lat='23.083' lng='120.3' name='阿樺生機蔬果吧' filename='23.083,120.3_605.html' />
  <store lat='24.998' lng='121.486' name='came現烘咖啡專門店(遠東世紀廣場)' filename='24.998,121.486_606.html' />
  <store lat='24.927' lng='121.252' name='王記山東水餃' filename='24.927,121.252_607.html' />
  <store lat='25.082' lng='121.559' name='豚屋-西湖店' filename='25.082,121.559_608.html' />
  <store lat='22.596' lng='120.332' name='※木侖杏仁糖※' filename='22.596,120.332_609.html' />
  <store lat='25.001' lng='121.459' name='吉麟港式燒臘' filename='25.001,121.459_610.html' />
  <store lat='25.051' lng='121.566' name='鮮芋仙 (南京店)' filename='25.051,121.566_611.html' />
  <store lat='24.743' lng='120.999' name='新城楓糖饅頭' filename='24.743,120.999_612.html' />
  <store lat='24.99' lng='121.41' name='餃頭老大' filename='24.99,121.41_613.html' />
  <store lat='25.101' lng='121.261' name='阿甘綠茶-桃園蘆竹店' filename='25.101,121.261_614.html' />
  <store lat='24.175' lng='120.645' name='手作功夫茶' filename='24.175,120.645_615.html' />
  <store lat='24.978' lng='121.543' name='MOS Burger 摩斯漢堡' filename='24.978,121.543_616.html' />
  <store lat='25.083' lng='121.567' name='MURMUR碎碎念' filename='25.083,121.567_617.html' />
  <store lat='24.812' lng='121.025' name='合浦刀切麵食' filename='24.812,121.025_618.html' />
  <store lat='24.824' lng='121.014' name='便當王' filename='24.824,121.014_619.html' />
  <store lat='24.999' lng='121.463' name='源士林' filename='24.999,121.463_620.html' />
  <store lat='' lng='' name='天然素食' filename=',_621.html' />
  <store lat='22.627' lng='120.3' name='江豪記臭豆腐-民生店' filename='22.627,120.3_622.html' />
  <store lat='25.083' lng='121.566' name='伍柒玖椒麻雞大王 (內湖)' filename='25.083,121.566_623.html' />
  <store lat='25.066' lng='121.459' name='清心(五股)' filename='25.066,121.459_624.html' />
  <store lat='25.057' lng='121.515' name='豆花莊' filename='25.057,121.515_625.html' />
  <store lat='25.052' lng='121.54' name='DonMono鮮五丼' filename='25.052,121.54_626.html' />
  <store lat='24.994' lng='121.496' name='85度C (中和圓通店)' filename='24.994,121.496_627.html' />
  <store lat='25.045' lng='121.516' name='Backpacker Lati拉丁背包客' filename='25.045,121.516_628.html' />
  <store lat='25.093' lng='121.268' name='7-11 咖啡-蘆海門市' filename='25.093,121.268_629.html' />
  <store lat='25.066' lng='121.631' name='50嵐 汐止中興店' filename='25.066,121.631_630.html' />
  <store lat='22.982' lng='120.198' name='波哥(台南健康店)' filename='22.982,120.198_631.html' />
  <store lat='24.979' lng='121.541' name='悟饕池上飯包◎新店民族店' filename='24.979,121.541_632.html' />
  <store lat='24.797' lng='120.969' name='新竹元氣酥炸脆皮包' filename='24.797,120.969_633.html' />
  <store lat='24.974' lng='121.544' name='文海煎包' filename='24.974,121.544_634.html' />
  <store lat='' lng='' name='三味屋' filename=',_635.html' />
  <store lat='24.964' lng='121.43' name='鑫城餐廳' filename='24.964,121.43_636.html' />
  <store lat='24.238' lng='120.563' name='COMEBUY' filename='24.238,120.563_637.html' />
  <store lat='25.057' lng='121.434' name='樂活DIY烘焙材料工作室' filename='25.057,121.434_638.html' />
  <store lat='24.975' lng='121.543' name='SUBWAY (七張店)' filename='24.975,121.543_639.html' />
  <store lat='25' lng='121.485' name='鮮天下水餃店' filename='25,121.485_640.html' />
  <store lat='25.037' lng='121.577' name='閩南餐飲' filename='25.037,121.577_641.html' />
  <store lat='25.018' lng='121.405' name='三顧茅廬-迴龍店' filename='25.018,121.405_642.html' />
  <store lat='25.083' lng='121.567' name='COMEBUY 西湖店' filename='25.083,121.567_643.html' />
  <store lat='25.006' lng='121.484' name='手作功夫茶 (中和中正路)' filename='25.006,121.484_644.html' />
  <store lat='24.842' lng='121.013' name='老周麵' filename='24.842,121.013_645.html' />
  <store lat='22.666' lng='120.306' name='鬆餅屋' filename='22.666,120.306_646.html' />
  <store lat='22.998' lng='120.171' name='台南林永泰興蜜餞行' filename='22.998,120.171_647.html' />
  <store lat='' lng='' name='黑磨坊' filename=',_648.html' />
  <store lat='25.05' lng='121.574' name='丹芳仙草' filename='25.05,121.574_649.html' />
  <store lat='24.87' lng='120.997' name='總鋪師 50元便當' filename='24.87,120.997_650.html' />
  <store lat='25.121' lng='121.506' name='小埜日式三角飯糰' filename='25.121,121.506_651.html' />
  <store lat='23.13' lng='120.297' name='小北平' filename='23.13,120.297_652.html' />
  <store lat='' lng='' name='鬍鬚張' filename=',_653.html' />
  <store lat='24.977' lng='121.548' name='寶橋路現打果汁' filename='24.977,121.548_654.html' />
  <store lat='22.623' lng='120.317' name='50嵐-高雄總店' filename='22.623,120.317_655.html' />
  <store lat='22.623' lng='120.317' name='紅太陽冷飲專賣店 高雄文化店' filename='22.623,120.317_656.html' />
  <store lat='22.623' lng='120.321' name='7-11 CITY CAFE(維雄門市)' filename='22.623,120.321_657.html' />
  <store lat='25.176' lng='121.447' name='爆料雞排-淡水學府店' filename='25.176,121.447_658.html' />
  <store lat='25.082' lng='121.572' name='珍寶廚房' filename='25.082,121.572_659.html' />
  <store lat='24.801' lng='120.966' name='澎湖花枝羹' filename='24.801,120.966_660.html' />
  <store lat='25.048' lng='121.555' name='中華一餅-八德' filename='25.048,121.555_661.html' />
  <store lat='25.062' lng='121.654' name='上湯食府' filename='25.062,121.654_662.html' />
  <store lat='23.077' lng='120.294' name='東一' filename='23.077,120.294_663.html' />
  <store lat='23.077' lng='120.294' name='東一' filename='23.077,120.294_664.html' />
  <store lat='25.138' lng='121.503' name='爆料雞排新北投店' filename='25.138,121.503_665.html' />
  <store lat='25.056' lng='121.613' name='爆料雞排 南港園區店' filename='25.056,121.613_666.html' />
  <store lat='22.992' lng='120.214' name='日喜美食小舖' filename='22.992,120.214_667.html' />
  <store lat='25.022' lng='121.542' name='親來食堂' filename='25.022,121.542_668.html' />
  <store lat='25.025' lng='121.539' name='拿坡里' filename='25.025,121.539_669.html' />
  <store lat='22.648' lng='120.326' name='廖家黑輪' filename='22.648,120.326_670.html' />
  <store lat='25.055' lng='121.614' name='尊上食坊' filename='25.055,121.614_671.html' />
  <store lat='22.644' lng='120.307' name='比果好茶飲' filename='22.644,120.307_672.html' />
  <store lat='22.535' lng='120.552' name='心之和烘焙屋' filename='22.535,120.552_673.html' />
  <store lat='23.133' lng='120.289' name='台南善化蕃薯媽媽炭烤地瓜' filename='23.133,120.289_674.html' />
  <store lat='' lng='' name='FARMELL 法媚兒保養品' filename=',_675.html' />
  <store lat='' lng='' name='Yvonne Belle伊梵貝兒保養品' filename=',_676.html' />
  <store lat='25.007' lng='121.457' name='楊董 排骨燒肉便當' filename='25.007,121.457_677.html' />
  <store lat='' lng='' name='山東水餃' filename=',_678.html' />
  <store lat='' lng='' name='韓味館(清大店)' filename=',_679.html' />
  <store lat='' lng='' name='芫寶大雲吞/水餃' filename=',_680.html' />
  <store lat='25.054' lng='121.541' name='ㄉㄨㄞ ㄉㄨㄞ 嫩仙草(龍江店)' filename='25.054,121.541_681.html' />
  <store lat='25.085' lng='121.561' name='清玉' filename='25.085,121.561_682.html' />
  <store lat='22.613' lng='120.302' name='郝小妹格子Q餅-高雄三多商圈' filename='22.613,120.302_683.html' />
  <store lat='' lng='' name='《雅＋達藤原豆腐冰》雅典滋味‧讓你甜蜜久' filename=',_684.html' />
  <store lat='22.628' lng='120.31' name='Sunflower 餅乾' filename='22.628,120.31_685.html' />
  <store lat='' lng='' name='有機蘋果苦瓜' filename=',_686.html' />
  <store lat='25.021' lng='121.35' name='葡萄王康貝兒益生菌或其他葡萄王保健食品' filename='25.021,121.35_687.html' />
  <store lat='25.057' lng='121.545' name='小烏龍鍋燒拉麵' filename='25.057,121.545_688.html' />
  <store lat='24.822' lng='121.023' name='清心福全冷飲站(竹北光明店)' filename='24.822,121.023_689.html' />
  <store lat='' lng='' name='內象 Tea&amp;Juice' filename=',_690.html' />
  <store lat='25.084' lng='121.557' name='京菓子工坊' filename='25.084,121.557_691.html' />
  <store lat='22.62' lng='120.308' name='金品麵食館' filename='22.62,120.308_692.html' />
  <store lat='25.03' lng='121.553' name='醍醐日式定食餐盒' filename='25.03,121.553_693.html' />
  <store lat='25.041' lng='121.576' name='四海遊龍-松山店' filename='25.041,121.576_694.html' />
  <store lat='' lng='' name='東杰貿易' filename=',_695.html' />
  <store lat='' lng='' name='食來運轉' filename=',_696.html' />
  <store lat='' lng='' name='中興無敵傘' filename=',_697.html' />
  <store lat='25.086' lng='121.567' name='BONA BONA PASTA' filename='25.086,121.567_698.html' />
  <store lat='25.062' lng='121.531' name='米露屋' filename='25.062,121.531_699.html' />
  <store lat='22.627' lng='120.282' name='乾坤水餃' filename='22.627,120.282_700.html' />
  <store lat='24.96' lng='121.222' name='寶記魯肉大王、魚料理' filename='24.96,121.222_701.html' />
  <store lat='25.044' lng='121.569' name='水巷茶弄-永吉店' filename='25.044,121.569_702.html' />
  <store lat='25.067' lng='121.539' name='光芒純手工起司蛋糕' filename='25.067,121.539_703.html' />
  <store lat='39.089' lng='117.232' name='台灣功夫褲直營工廠' filename='39.089,117.232_704.html' />
  <store lat='22.975' lng='120.226' name='新化 阿發排骨大王' filename='22.975,120.226_705.html' />
  <store lat='25.091' lng='121.56' name='皇家農場 多益康' filename='25.091,121.56_706.html' />
  <store lat='25.079' lng='121.58' name='波蘿貝爾' filename='25.079,121.58_707.html' />
  <store lat='25.052' lng='121.552' name='麻吉起司&amp;巧克力' filename='25.052,121.552_708.html' />
  <store lat='23.121' lng='120.294' name='關北紅豆餅' filename='23.121,120.294_709.html' />
  <store lat='22.613' lng='120.349' name='全台古早味紅茶專賣店(前金自強店)' filename='22.613,120.349_710.html' />
  <store lat='25.105' lng='121.522' name='溫莎御品' filename='25.105,121.522_711.html' />
  <store lat='24.679' lng='121.768' name='諾貝爾奶凍蛋糕食品' filename='24.679,121.768_712.html' />
  <store lat='25.027' lng='121.569' name='2派克脆皮雞排 信義店' filename='25.027,121.569_713.html' />
  <store lat='24.806' lng='120.993' name='黑桃皇后 王牌潮飲(新竹世博店)' filename='24.806,120.993_714.html' />
  <store lat='25.049' lng='121.594' name='七嘴八舌 南港-昆陽店' filename='25.049,121.594_715.html' />
  <store lat='25.047' lng='121.542' name='一手私藏世界紅茶(八德店)' filename='25.047,121.542_716.html' />
  <store lat='25.046' lng='121.51' name='斯特林節能' filename='25.046,121.51_717.html' />
  <store lat='' lng='' name='大豆豆餐飲屋' filename=',_718.html' />
  <store lat='25.055' lng='121.611' name='鐵路便當' filename='25.055,121.611_719.html' />
  <store lat='24.972' lng='121.544' name='名成燒臘快餐(德正店)' filename='24.972,121.544_720.html' />
  <store lat='24.982' lng='121.56' name='名成燒臘快餐(忠順店)' filename='24.982,121.56_721.html' />
  <store lat='25.053' lng='121.545' name='comybuy松山店' filename='25.053,121.545_722.html' />
  <store lat='25.003' lng='121.488' name='珍酉味' filename='25.003,121.488_723.html' />
  <store lat='22.992' lng='120.222' name='O-JA紅茶專賣' filename='22.992,120.222_724.html' />
  <store lat='25.053' lng='121.371' name='鮮天下(林口二店)' filename='25.053,121.371_725.html' />
  <store lat='25.053' lng='121.514' name='清心福全(重慶北店)' filename='25.053,121.514_726.html' />
  <store lat='25.05' lng='121.515' name='壹咖啡(華陰店)' filename='25.05,121.515_727.html' />
  <store lat='' lng='' name='韓國麵包' filename=',_728.html' />
  <store lat='25.053' lng='121.545' name='comebuy松山店' filename='25.053,121.545_729.html' />
  <store lat='25.054' lng='121.535' name='果物憩席' filename='25.054,121.535_730.html' />
  <store lat='25.057' lng='121.614' name='Subway-南港園區店' filename='25.057,121.614_731.html' />
  <store lat='24.838' lng='121.012' name='天天便利購' filename='24.838,121.012_732.html' />
  <store lat='25.052' lng='121.558' name='☆周大廚☆四川成都☆麻辣醬' filename='25.052,121.558_733.html' />
  <store lat='24.975' lng='121.279' name='測試' filename='24.975,121.279_734.html' />
  <store lat='24.787' lng='121.01' name='清玉科園店' filename='24.787,121.01_735.html' />
  <store lat='22.574' lng='120.569' name='正宗萬巒林家豬腳' filename='22.574,120.569_736.html' />
  <store lat='24.871' lng='121.218' name='http://www.qqoec.idv' filename='24.871,121.218_737.html' />
  <store lat='24.769' lng='121.055' name='明爐燒臘園(二重店)' filename='24.769,121.055_738.html' />
  <store lat='' lng='' name='松村燻之味-煙燻滷味' filename=',_739.html' />
  <store lat='23.551' lng='120.427' name='彎彎順喜憨兒手工水餃' filename='23.551,120.427_740.html' />
  <store lat='22.656' lng='120.337' name='火星糖(高雄市)' filename='22.656,120.337_741.html' />
  <store lat='24.773' lng='121.082' name='新美珍餅舖' filename='24.773,121.082_742.html' />
  <store lat='24.937' lng='121.25' name='奶油匠蛋糕' filename='24.937,121.25_743.html' />
  <store lat='22.657' lng='120.306' name='好事多' filename='22.657,120.306_744.html' />
  <store lat='25.067' lng='121.657' name='卡嚕哇咖啡義麵坊' filename='25.067,121.657_745.html' />
  <store lat='24.819' lng='121.026' name='解渴鮮茶竹北自強店' filename='24.819,121.026_746.html' />
  <store lat='23.194' lng='120.307' name='鄉味食坊' filename='23.194,120.307_747.html' />
  <store lat='24.838' lng='121.009' name='福泉布丁豆花--新竹總店' filename='24.838,121.009_748.html' />
  <store lat='24.174' lng='120.647' name='林' filename='24.174,120.647_749.html' />
  <store lat='25.083' lng='121.571' name='山東餃子館' filename='25.083,121.571_750.html' />
  <store lat='22.641' lng='120.349' name='火燄熱狗堡(新堀江總店)' filename='22.641,120.349_751.html' />
  <store lat='24.984' lng='121.534' name='金廚精緻自助餐' filename='24.984,121.534_752.html' />
  <store lat='24.683' lng='120.905' name='四海遊龍  頭份店' filename='24.683,120.905_753.html' />
  <store lat='25.057' lng='121.584' name='巴沙米亞' filename='25.057,121.584_754.html' />
  <store lat='' lng='' name='紅麴健康土司' filename=',_755.html' />
  <store lat='25.041' lng='121.565' name='(團購)福菓子' filename='25.041,121.565_756.html' />
  <store lat='25.001' lng='121.501' name='觀音素食歐式自助餐' filename='25.001,121.501_757.html' />
  <store lat='24.145' lng='120.656' name='米記便當' filename='24.145,120.656_758.html' />
  <store lat='24.153' lng='120.635' name='崧林素食' filename='24.153,120.635_759.html' />
  <store lat='23.976' lng='121.606' name='麥德加手工饅頭包子店' filename='23.976,121.606_760.html' />
  <store lat='22.614' lng='120.339' name='晴恩小舖.小浣熊烤海苔10送1平均91元' filename='22.614,120.339_761.html' />
  <store lat='24.189' lng='120.616' name='Mr. WISH 中科店' filename='24.189,120.616_762.html' />
  <store lat='23.078' lng='120.292' name='就是想喝 (新市店)' filename='23.078,120.292_763.html' />
  <store lat='24.839' lng='121.002' name='竹北排骨酥麵' filename='24.839,121.002_764.html' />
  <store lat='25.117' lng='121.507' name='茶園 尊賢店' filename='25.117,121.507_765.html' />
  <store lat='22.605' lng='120.329' name='達美樂Pizza瑞隆店' filename='22.605,120.329_766.html' />
  <store lat='' lng='' name='涼食亭' filename=',_767.html' />
  <store lat='25.051' lng='121.563' name='麥當勞南京店' filename='25.051,121.563_768.html' />
  <store lat='24.127' lng='121.652' name='佳興冰果室' filename='24.127,121.652_769.html' />
  <store lat='24.777' lng='121.021' name='豪 俐 鐵 板 沙 威 瑪' filename='24.777,121.021_770.html' />
  <store lat='24.777' lng='121.021' name='布丁奶奶-布丁奶茶專賣店' filename='24.777,121.021_771.html' />
  <store lat='25.063' lng='121.501' name='摩斯漢堡三重台北橋店' filename='25.063,121.501_772.html' />
  <store lat='25.05' lng='121.534' name='金時良房' filename='25.05,121.534_773.html' />
  <store lat='24.948' lng='121.245' name='諾亞半熟蛋糕' filename='24.948,121.245_774.html' />
  <store lat='25.05' lng='121.459' name='[Aroma&#039;s Love戀香氛]' filename='25.05,121.459_775.html' />
  <store lat='24.828' lng='121.01' name='新竹 美麗果汁吧' filename='24.828,121.01_776.html' />
  <store lat='25.055' lng='121.535' name='帝一沙茶羊牛肉' filename='25.055,121.535_777.html' />
  <store lat='24.834' lng='121.018' name='徐家小吃店' filename='24.834,121.018_778.html' />
  <store lat='24.135' lng='120.644' name='千肪蛋糕' filename='24.135,120.644_779.html' />
  <store lat='25.086' lng='121.567' name='小P滷味' filename='25.086,121.567_780.html' />
  <store lat='25.032' lng='121.52' name='豪寶日式便當(寧波店)' filename='25.032,121.52_781.html' />
  <store lat='' lng='' name='吉野烤肉快餐' filename=',_782.html' />
  <store lat='24.799' lng='120.992' name='O&#039;life活力客_新竹光復店' filename='24.799,120.992_783.html' />
  <store lat='25.057' lng='121.634' name='中興有機素食館' filename='25.057,121.634_784.html' />
  <store lat='25.078' lng='121.396' name='巧食雞之哞哥炭烤雞排店(林口)' filename='25.078,121.396_785.html' />
  <store lat='' lng='' name='團購今日試吃' filename=',_786.html' />
  <store lat='25.036' lng='121.578' name='客拉客碳烤雞排&amp;茶飲' filename='25.036,121.578_787.html' />
  <store lat='25.061' lng='121.565' name='樂活冰品' filename='25.061,121.565_788.html' />
  <store lat='' lng='' name='GOOD(姑的)烘焙坊' filename=',_789.html' />
  <store lat='25.082' lng='121.572' name='泰雅軒' filename='25.082,121.572_790.html' />
  <store lat='25.084' lng='121.567' name='2派克脆皮雞排-內湖店' filename='25.084,121.567_791.html' />
  <store lat='25.059' lng='121.539' name='紅景天飲品-台北合江店' filename='25.059,121.539_792.html' />
  <store lat='25.045' lng='121.517' name='茶涎' filename='25.045,121.517_793.html' />
  <store lat='24.991' lng='121.31' name='超級機車' filename='24.991,121.31_794.html' />
  <store lat='25.019' lng='121.557' name='龍門食館' filename='25.019,121.557_795.html' />
  <store lat='25.037' lng='121.557' name='肯德雞' filename='25.037,121.557_796.html' />
  <store lat='24.975' lng='121.543' name='詩特莉餅乾 Aunt Stella' filename='24.975,121.543_797.html' />
  <store lat='24.964' lng='121.542' name='鮮餃屋' filename='24.964,121.542_798.html' />
  <store lat='' lng='' name='明新食品' filename=',_799.html' />
  <store lat='25.061' lng='121.566' name='好凍吸(最有料的好東西)台北新東店' filename='25.061,121.566_800.html' />
  <store lat='25.077' lng='121.58' name='津正越南美食' filename='25.077,121.58_801.html' />
  <store lat='25.067' lng='121.583' name='御鼎園' filename='25.067,121.583_802.html' />
  <store lat='25.067' lng='121.583' name='曼咖啡' filename='25.067,121.583_803.html' />
  <store lat='25.053' lng='121.519' name='日多寶北海道千層蛋糕' filename='25.053,121.519_804.html' />
  <store lat='25.041' lng='121.554' name='平價服飾' filename='25.041,121.554_805.html' />
  <store lat='' lng='' name='江媽媽' filename=',_806.html' />
  <store lat='25.06' lng='121.567' name='3碗豬腳拌麵' filename='25.06,121.567_807.html' />
  <store lat='25.023' lng='121.543' name='COME BUY和平店' filename='25.023,121.543_808.html' />
  <store lat='24.798' lng='120.998' name='3皇3家 (清大店)' filename='24.798,120.998_809.html' />
  <store lat='24.996' lng='121.524' name='佳瑞發和風輕食' filename='24.996,121.524_810.html' />
  <store lat='24.839' lng='121.011' name='派克-竹北中山店' filename='24.839,121.011_811.html' />
  <store lat='24.687' lng='120.878' name='魔力手作茶(竹南店)' filename='24.687,120.878_812.html' />
  <store lat='25.002' lng='121.473' name='內象 Tea&amp;Juice(中和店)' filename='25.002,121.473_813.html' />
  <store lat='22.708' lng='120.424' name='小新玉荷包' filename='22.708,120.424_814.html' />
  <store lat='22.683' lng='120.491' name='悟饕池上便當(屏東自由店)' filename='22.683,120.491_815.html' />
  <store lat='25.032' lng='121.559' name='台東池上包飯' filename='25.032,121.559_816.html' />
  <store lat='25.061' lng='121.534' name='潤品屋潤餅' filename='25.061,121.534_817.html' />
  <store lat='24.151' lng='120.637' name='禾雅堂經典乳酪蛋糕' filename='24.151,120.637_818.html' />
  <store lat='24.998' lng='121.488' name='義麵星球-家庭料理包' filename='24.998,121.488_819.html' />
  <store lat='24.968' lng='121.545' name='幸運星咖啡餐飲' filename='24.968,121.545_820.html' />
  <store lat='21.991' lng='120.748' name='小 杜 包 子' filename='21.991,120.748_821.html' />
  <store lat='24.98' lng='121.542' name='冰店' filename='24.98,121.542_822.html' />
  <store lat='49.601' lng='6.116' name='祥哥滷味' filename='49.601,6.116_823.html' />
  <store lat='23.967' lng='121.598' name='漫遊花蓮手工爆米花球' filename='23.967,121.598_824.html' />
  <store lat='24.992' lng='121.542' name='海力士' filename='24.992,121.542_825.html' />
  <store lat='24.84' lng='121.008' name='濟軒廚藝' filename='24.84,121.008_826.html' />
  <store lat='24.839' lng='121.011' name='嘉義古早味' filename='24.839,121.011_827.html' />
  <store lat='24.984' lng='121.534' name='眾饕' filename='24.984,121.534_828.html' />
  <store lat='22.644' lng='120.308' name='麻古茶坊(三民區)' filename='22.644,120.308_829.html' />
  <store lat='25.043' lng='121.576' name='八仙豆' filename='25.043,121.576_830.html' />
  <store lat='' lng='' name='松村-燻之味' filename=',_831.html' />
  <store lat='25.05' lng='121.572' name='星球工坊(會員日)' filename='25.05,121.572_832.html' />
  <store lat='25.025' lng='121.525' name='鮮太無添加 定食&amp;便當' filename='25.025,121.525_833.html' />
  <store lat='23.304' lng='120.314' name='希味工坊' filename='23.304,120.314_834.html' />
  <store lat='25.031' lng='121.56' name='蟬吃茶' filename='25.031,121.56_835.html' />
  <store lat='25.086' lng='121.564' name='多益得『健康煮濾油網』' filename='25.086,121.564_836.html' />
  <store lat='24.835' lng='121.015' name='溫州大餛飩(中正東店)' filename='24.835,121.015_837.html' />
  <store lat='' lng='' name='素食壽司(新店)' filename=',_838.html' />
  <store lat='24.795' lng='120.974' name='新竹 大東北韭菜盒子' filename='24.795,120.974_839.html' />
  <store lat='23.021' lng='120.223' name='櫻花の日式蛋包飯 (專賣店)' filename='23.021,120.223_840.html' />
  <store lat='22.599' lng='120.337' name='甘蔗泡茶飲連鎖' filename='22.599,120.337_841.html' />
  <store lat='24.828' lng='121.01' name='皇帝大' filename='24.828,121.01_842.html' />
  <store lat='24.753' lng='120.938' name='TEST' filename='24.753,120.938_843.html' />
  <store lat='25.084' lng='121.562' name='黑胡胡椒餅&amp;黑肉丸' filename='25.084,121.562_844.html' />
  <store lat='24.833' lng='121.012' name='新農街水餃' filename='24.833,121.012_845.html' />
  <store lat='25.059' lng='121.366' name='連珍便當' filename='25.059,121.366_846.html' />
  <store lat='25.075' lng='121.582' name='午當派' filename='25.075,121.582_847.html' />
  <store lat='24.981' lng='121.544' name='九洲拉麵' filename='24.981,121.544_848.html' />
  <store lat='25.078' lng='121.591' name='台灣冰尚好' filename='25.078,121.591_849.html' />
  <store lat='23.455' lng='120.459' name='老耿食品本舖' filename='23.455,120.459_850.html' />
  <store lat='24.975' lng='121.536' name='甘泉魚麵（中正店）' filename='24.975,121.536_851.html' />
  <store lat='24.778' lng='121.021' name='打鐵趁熱' filename='24.778,121.021_852.html' />
  <store lat='24.778' lng='121.021' name='竹嵙薏仁坊(竹科店)' filename='24.778,121.021_853.html' />
  <store lat='24.147' lng='120.634' name='鮮禾佳企業有限公司' filename='24.147,120.634_854.html' />
  <store lat='25.025' lng='121.528' name='天下佈武 日月潭紅茶' filename='25.025,121.528_855.html' />
  <store lat='22.605' lng='120.309' name='新多益測驗教本(9)' filename='22.605,120.309_856.html' />
  <store lat='22.622' lng='120.283' name='孫家肉粽' filename='22.622,120.283_857.html' />
  <store lat='22.625' lng='120.295' name='陳阿姨鴨肉麵' filename='22.625,120.295_858.html' />
  <store lat='22.626' lng='120.283' name='大溝頂純旗魚' filename='22.626,120.283_859.html' />
  <store lat='24.994' lng='121.455' name='周師傅燒肉便當店' filename='24.994,121.455_860.html' />
  <store lat='25.128' lng='121.745' name='基隆遠東泡泡冰' filename='25.128,121.745_861.html' />
  <store lat='25.071' lng='121.582' name='平衡點咖啡' filename='25.071,121.582_862.html' />
  <store lat='' lng='' name='所長茶葉蛋' filename=',_863.html' />
  <store lat='25.054' lng='121.547' name='五十嵐(長春店)' filename='25.054,121.547_864.html' />
  <store lat='24.809' lng='121.022' name='六街小吃' filename='24.809,121.022_865.html' />
  <store lat='25.105' lng='121.522' name='溫莎御品' filename='25.105,121.522_866.html' />
  <store lat='25.069' lng='121.665' name='Tea&#039;s原味 汐止忠孝店' filename='25.069,121.665_867.html' />
  <store lat='25.057' lng='121.548' name='星巴克' filename='25.057,121.548_868.html' />
  <store lat='25.13' lng='121.749' name='基隆泉利米香' filename='25.13,121.749_869.html' />
  <store lat='25.047' lng='121.554' name='鴻廚便當' filename='25.047,121.554_870.html' />
  <store lat='25.13' lng='121.498' name='小歇泡沫紅茶(北投店)' filename='25.13,121.498_871.html' />
  <store lat='24.142' lng='120.639' name='DEIDEI茶茶' filename='24.142,120.639_872.html' />
  <store lat='24.98' lng='121.54' name='呷壹鼎臭臭鍋' filename='24.98,121.54_873.html' />
  <store lat='24.974' lng='121.543' name='三媽臭臭鍋（寶橋店）' filename='24.974,121.543_874.html' />
  <store lat='25.066' lng='121.46' name='茶太屋0359(五股五工店)' filename='25.066,121.46_875.html' />
  <store lat='25.042' lng='121.546' name='一抹尚飲 東區地下街店' filename='25.042,121.546_876.html' />
  <store lat='22.617' lng='120.325' name='巴特里餐包' filename='22.617,120.325_877.html' />
  <store lat='24.781' lng='121.03' name='阿甘綠茶-竹中店' filename='24.781,121.03_878.html' />
  <store lat='' lng='' name='@@E-海鮮舖@@' filename=',_879.html' />
  <store lat='25.069' lng='121.584' name='小劉便當(瑞光店) 2012最新價目' filename='25.069,121.584_880.html' />
  <store lat='25.051' lng='121.564' name='大家廚房' filename='25.051,121.564_881.html' />
  <store lat='24.804' lng='120.968' name='五角冰舖 武昌店' filename='24.804,120.968_882.html' />
  <store lat='23.97' lng='120.954' name='紫華園' filename='23.97,120.954_883.html' />
  <store lat='25.061' lng='121.566' name='東葉豬腳' filename='25.061,121.566_884.html' />
  <store lat='25.031' lng='121.553' name='可愛家便當' filename='25.031,121.553_885.html' />
  <store lat='' lng='' name='龍之軒' filename=',_886.html' />
  <store lat='24.797' lng='120.998' name='新竹 青大夜市烏賊燒' filename='24.797,120.998_887.html' />
  <store lat='' lng='' name='台灣青上青' filename=',_888.html' />
  <store lat='25.083' lng='121.567' name='養生屋' filename='25.083,121.567_889.html' />
  <store lat='25.108' lng='121.843' name='金山郭花生糖' filename='25.108,121.843_890.html' />
  <store lat='' lng='' name='垂坤肉鬆' filename=',_891.html' />
  <store lat='25.101' lng='121.492' name='花花邦妮-美式風味爆米花' filename='25.101,121.492_892.html' />
  <store lat='24.983' lng='121.539' name='湘之味百匯盒餐' filename='24.983,121.539_893.html' />
  <store lat='25.048' lng='121.558' name='楊基麵線(原楊記麵線)' filename='25.048,121.558_894.html' />
  <store lat='' lng='' name='龍城極品燒臘' filename=',_895.html' />
  <store lat='24.95' lng='121.35' name='山元素食早餐' filename='24.95,121.35_896.html' />
  <store lat='25.073' lng='121.576' name='華寶B1吧' filename='25.073,121.576_897.html' />
  <store lat='' lng='' name='金門良金牛肉干' filename=',_898.html' />
  <store lat='24.968' lng='121.543' name='綠珠坊' filename='24.968,121.543_899.html' />
  <store lat='22.644' lng='120.325' name='果豆家收作烘焙' filename='22.644,120.325_900.html' />
  <store lat='23.976' lng='121.61' name='花蓮縣餅菩提餅舖  奶油酥條' filename='23.976,121.61_901.html' />
  <store lat='24.949' lng='121.379' name='藍棧咖啡(樹林北大店)' filename='24.949,121.379_902.html' />
  <store lat='25.041' lng='121.533' name='元樂-年輪蛋糕' filename='25.041,121.533_903.html' />
  <store lat='24.178' lng='120.618' name='嘉徠排骨專賣店' filename='24.178,120.618_904.html' />
  <store lat='24.051' lng='120.435' name='鹿港六合齋牛舌餅' filename='24.051,120.435_905.html' />
  <store lat='25.078' lng='121.572' name='雲鼎-瑞光店' filename='25.078,121.572_906.html' />
  <store lat='25.084' lng='121.565' name='滿江鴻' filename='25.084,121.565_907.html' />
  <store lat='25.063' lng='121.521' name='皇室精緻早午餐-天祥路店' filename='25.063,121.521_908.html' />
  <store lat='25.075' lng='121.576' name='曼咖啡(內湖瑞光店)' filename='25.075,121.576_909.html' />
  <store lat='23.073' lng='120.293' name='新市小卷米粉' filename='23.073,120.293_910.html' />
  <store lat='25.026' lng='121.555' name='信義路4樓-蔡老師蔬食' filename='25.026,121.555_911.html' />
  <store lat='' lng='' name='小公主&amp;小王子的花花衣' filename=',_912.html' />
  <store lat='25.032' lng='121.56' name='府成蘭香' filename='25.032,121.56_913.html' />
  <store lat='22.994' lng='120.215' name='海島風味館' filename='22.994,120.215_914.html' />
  <store lat='24.964' lng='121.54' name='池上便當(北新店)' filename='24.964,121.54_915.html' />
  <store lat='25.057' lng='121.614' name='飯屋' filename='25.057,121.614_916.html' />
  <store lat='24.871' lng='121.016' name='樂樂炸雞' filename='24.871,121.016_917.html' />
  <store lat='' lng='' name='靓咖哩' filename=',_918.html' />
  <store lat='25.077' lng='121.578' name='薡茶(內湖店)' filename='25.077,121.578_919.html' />
  <store lat='25.086' lng='121.559' name='內湖蔥抓餅' filename='25.086,121.559_920.html' />
  <store lat='24.806' lng='120.993' name='黑桃皇后' filename='24.806,120.993_921.html' />
  <store lat='25.046' lng='121.508' name='MIB星際戰警3' filename='25.046,121.508_922.html' />
  <store lat='24.098' lng='120.64' name='[長頸鹿在我家]手工坊（The Happ' filename='24.098,120.64_923.html' />
  <store lat='25.078' lng='121.577' name='店名: 拉亞漢堡(內湖江南店)' filename='25.078,121.577_924.html' />
  <store lat='24.309' lng='120.723' name='Georg Peck 喬治派克(后里店)' filename='24.309,120.723_925.html' />
  <store lat='25.082' lng='121.571' name='源士林廣東粥' filename='25.082,121.571_926.html' />
  <store lat='22.665' lng='120.305' name='50嵐' filename='22.665,120.305_927.html' />
  <store lat='22.665' lng='120.304' name='唐家麵點王' filename='22.665,120.304_928.html' />
  <store lat='22.664' lng='120.311' name='台南小南雞腿/排骨大王' filename='22.664,120.311_929.html' />
  <store lat='25.007' lng='121.489' name='葵可利' filename='25.007,121.489_930.html' />
  <store lat='24.872' lng='121.016' name='客來暴點心舖' filename='24.872,121.016_931.html' />
  <store lat='23.482' lng='120.434' name='舞鳳蛋捲' filename='23.482,120.434_932.html' />
  <store lat='' lng='' name='老虎麵' filename=',_933.html' />
  <store lat='25.002' lng='121.481' name='橘子工坊(中和員山店)' filename='25.002,121.481_934.html' />
  <store lat='24.11' lng='120.604' name='東海刈包大王- 沙鹿店' filename='24.11,120.604_935.html' />
  <store lat='' lng='' name='史汀布蕾(包子饅頭)' filename=',_936.html' />
  <store lat='24.802' lng='120.998' name='鬆餅巷' filename='24.802,120.998_937.html' />
  <store lat='25.028' lng='121.543' name='魯太郎 加熱滷味' filename='25.028,121.543_938.html' />
  <store lat='22.467' lng='120.45' name='華珍食品' filename='22.467,120.45_939.html' />
  <store lat='24.968' lng='121.437' name='50嵐(土城中央店)56月下午茶' filename='24.968,121.437_940.html' />
  <store lat='25.07' lng='121.583' name='菜の味盒餐' filename='25.07,121.583_941.html' />
  <store lat='25.081' lng='121.571' name='50嵐-內湖園區店' filename='25.081,121.571_942.html' />
  <store lat='25.055' lng='121.567' name='祝你幸福日式紅豆餅' filename='25.055,121.567_943.html' />
  <store lat='25.003' lng='121.474' name='周師傅燒肉飯' filename='25.003,121.474_944.html' />
  <store lat='25.044' lng='121.578' name='百年峰華茶館' filename='25.044,121.578_945.html' />
  <store lat='25.037' lng='121.547' name='埔里102 (仁愛店)' filename='25.037,121.547_946.html' />
  <store lat='24.979' lng='121.541' name='小樂天餃子館【創始店】' filename='24.979,121.541_947.html' />
  <store lat='' lng='' name='(傅)湘記麵館' filename=',_948.html' />
  <store lat='23.077' lng='120.296' name='二饌牛肉麵館' filename='23.077,120.296_949.html' />
  <store lat='24.838' lng='121.01' name='coco 竹北博愛' filename='24.838,121.01_950.html' />
  <store lat='' lng='' name='大樹鄉冠軍品種玉荷包' filename=',_951.html' />
  <store lat='24.795' lng='121.009' name='米樂手工爆米花' filename='24.795,121.009_952.html' />
  <store lat='24.836' lng='121.01' name='橋頭小吃(中正東路)' filename='24.836,121.01_953.html' />
  <store lat='23.007' lng='120.219' name='竇爸雞腿王' filename='23.007,120.219_954.html' />
  <store lat='25.066' lng='121.642' name='CoCo 都可茶飲（汐止樟樹店）' filename='25.066,121.642_955.html' />
  <store lat='25.027' lng='121.531' name='雷峰-健康牙刷' filename='25.027,121.531_956.html' />
  <store lat='24.237' lng='120.558' name='日茂行 卡哩&amp;泰式鮮蝦餅' filename='24.237,120.558_957.html' />
  <store lat='24.997' lng='121.465' name='煮婦~燒肉粽(南部)' filename='24.997,121.465_958.html' />
  <store lat='24.787' lng='121.017' name='新莊沙茶牛肉麵' filename='24.787,121.017_959.html' />
  <store lat='25.07' lng='121.639' name='大飯桶' filename='25.07,121.639_960.html' />
  <store lat='24.834' lng='121.01' name='伊村燒肉飯' filename='24.834,121.01_961.html' />
  <store lat='24.797' lng='120.998' name='INFUN' filename='24.797,120.998_962.html' />
  <store lat='25.007' lng='121.521' name='文化養生豆漿豆花' filename='25.007,121.521_963.html' />
  <store lat='25.048' lng='121.542' name='喫茶小舖_台北長安東店' filename='25.048,121.542_964.html' />
  <store lat='22.665' lng='120.304' name='清香園' filename='22.665,120.304_965.html' />
  <store lat='22.666' lng='120.304' name='脆皮雞排(高雄裕誠店)' filename='22.666,120.304_966.html' />
  <store lat='24.834' lng='121.007' name='阿西嬸紅茶冰-竹北博愛店' filename='24.834,121.007_967.html' />
  <store lat='24.777' lng='121.022' name='皇城燒臘-金山店' filename='24.777,121.022_968.html' />
  <store lat='24.986' lng='121.537' name='正香咩蔬食坊' filename='24.986,121.537_969.html' />
  <store lat='25.056' lng='121.368' name='麗媽香香鍋' filename='25.056,121.368_970.html' />
  <store lat='23.988' lng='120.687' name='寶島精品(果乾)' filename='23.988,120.687_971.html' />
  <store lat='24.799' lng='120.972' name='炸糊雞肉飯' filename='24.799,120.972_972.html' />
  <store lat='24.807' lng='120.963' name='飛龍排骨' filename='24.807,120.963_973.html' />
  <store lat='25.077' lng='121.691' name='衛生紙團購' filename='25.077,121.691_974.html' />
  <store lat='25.078' lng='121.572' name='雲鼎-內湖瑞光店' filename='25.078,121.572_975.html' />
  <store lat='24.777' lng='121.021' name='越南美食(新竹金山八街)' filename='24.777,121.021_976.html' />
  <store lat='25.045' lng='121.515' name='Mr. Wish (台北信陽店)' filename='25.045,121.515_977.html' />
  <store lat='23.133' lng='120.299' name='嘉義車頭火雞肉飯' filename='23.133,120.299_978.html' />
  <store lat='24.307' lng='120.716' name='舞茶道(后里店)' filename='24.307,120.716_979.html' />
  <store lat='23.506' lng='120.31' name='土豆世家(王記花生)' filename='23.506,120.31_980.html' />
  <store lat='24.107' lng='120.501' name='南爺爺饕食館' filename='24.107,120.501_981.html' />
  <store lat='24.442' lng='118.342' name='酒鄉' filename='24.442,118.342_982.html' />
  <store lat='25.025' lng='121.529' name='師園鹽酥雞' filename='25.025,121.529_983.html' />
  <store lat='23.975' lng='121.579' name='團購 ㊣ 花蓮提拉米蘇' filename='23.975,121.579_984.html' />
  <store lat='24.17' lng='120.68' name='吉仕田鮮乳酪蛋糕' filename='24.17,120.68_985.html' />
  <store lat='' lng='' name='光頭呂' filename=',_986.html' />
  <store lat='22.666' lng='120.304' name='麵飯小館' filename='22.666,120.304_987.html' />
  <store lat='25.061' lng='121.563' name='源士林粥品' filename='25.061,121.563_988.html' />
  <store lat='' lng='' name='秀逗排骨拉麵' filename=',_989.html' />
  <store lat='22.996' lng='120.215' name='斜塔義式料理廚房' filename='22.996,120.215_990.html' />
  <store lat='25.077' lng='121.578' name='薡茶內湖瑞光店' filename='25.077,121.578_991.html' />
  <store lat='23.76' lng='120.354' name='千巧谷烘焙工坊' filename='23.76,120.354_992.html' />
  <store lat='22.66' lng='120.307' name='火雞肉飯(左營區)' filename='22.66,120.307_993.html' />
  <store lat='25.062' lng='121.531' name='米露屋海苔捲' filename='25.062,121.531_994.html' />
  <store lat='' lng='' name='Bento超味魷魚片小包裝/一掛14包' filename=',_995.html' />
  <store lat='' lng='' name='BENTO超味魷魚片' filename=',_996.html' />
  <store lat='24.796' lng='120.977' name='昌捷嚴選' filename='24.796,120.977_997.html' />
  <store lat='22.584' lng='120.401' name='磚子窯農場' filename='22.584,120.401_998.html' />
  <store lat='22.665' lng='120.304' name='35 鮮果茶' filename='22.665,120.304_999.html' />
  <store lat='' lng='' name='統帥芋冰城' filename=',_1000.html' />
  <store lat='24.775' lng='121.087' name='阿霞麵食' filename='24.775,121.087_1001.html' />
  <store lat='25.013' lng='121.483' name='中央伙房' filename='25.013,121.483_1002.html' />
  <store lat='24.82' lng='121.022' name='RD 春酒蔚穰岩燒菜單' filename='24.82,121.022_1003.html' />
  <store lat='24.005' lng='121.584' name='101年端午粽情花蓮嚴選社區店家團購' filename='24.005,121.584_1004.html' />
  <store lat='25' lng='121.65' name='思勳饅頭' filename='25,121.65_1005.html' />
  <store lat='24.239' lng='120.671' name='3Q脆皮雞排' filename='24.239,120.671_1006.html' />
  <store lat='25.05' lng='121.581' name='玫瑰妮妮手作坊' filename='25.05,121.581_1007.html' />
  <store lat='25.045' lng='121.517' name='Casa Panini' filename='25.045,121.517_1008.html' />
  <store lat='23.957' lng='120.975' name='Feeling18℃ 巧克力工房' filename='23.957,120.975_1009.html' />
  <store lat='25.077' lng='121.393' name='派克林口中正店' filename='25.077,121.393_1010.html' />
  <store lat='25.057' lng='121.364' name='50嵐 (桃園長庚店)' filename='25.057,121.364_1011.html' />
  <store lat='' lng='' name='京王子燒臘店' filename=',_1012.html' />
  <store lat='25.083' lng='121.517' name='克朗奇手作泡芙' filename='25.083,121.517_1013.html' />
  <store lat='25.077' lng='121.395' name='阿福雞排' filename='25.077,121.395_1014.html' />
  <store lat='24.824' lng='121.027' name='劉師父-六家站(甲好料)' filename='24.824,121.027_1015.html' />
  <store lat='24.225' lng='120.657' name='晨昌健康科技X-BIKE健身車' filename='24.225,120.657_1016.html' />
  <store lat='24.822' lng='121.027' name='紅蘋果' filename='24.822,121.027_1017.html' />
  <store lat='22.989' lng='120.191' name='雅+達藤原豆腐冰' filename='22.989,120.191_1018.html' />
  <store lat='24.835' lng='121.014' name='燕京麵食館' filename='24.835,121.014_1019.html' />
  <store lat='24.975' lng='121.547' name='波特曼香雞排(新店店)' filename='24.975,121.547_1020.html' />
  <store lat='24.997' lng='121.497' name='鮮黃記豆花' filename='24.997,121.497_1021.html' />
  <store lat='' lng='' name='慶封王！星巴克星冰樂買一送一！！' filename=',_1022.html' />
  <store lat='24.19' lng='120.613' name='池上蔡飯包' filename='24.19,120.613_1023.html' />
  <store lat='24.188' lng='120.62' name='好佳亭自助餐' filename='24.188,120.62_1024.html' />
  <store lat='25.028' lng='121.547' name='昌鴻港式燒臘' filename='25.028,121.547_1025.html' />
  <store lat='22.664' lng='120.311' name='米寶便當(裕誠店)' filename='22.664,120.311_1026.html' />
  <store lat='22.665' lng='120.308' name='港督燒臘 (裕誠路口)' filename='22.665,120.308_1027.html' />
  <store lat='' lng='' name='京都格蘭御藤床包組涼蓆' filename=',_1028.html' />
  <store lat='25.027' lng='121.569' name='阿嬤便當(50元便當)' filename='25.027,121.569_1029.html' />
  <store lat='' lng='' name='烏魚子芒果乾' filename=',_1030.html' />
  <store lat='24.778' lng='121.019' name='金山面食館' filename='24.778,121.019_1031.html' />
  <store lat='25.085' lng='121.561' name='協力香雞排(美麗華)' filename='25.085,121.561_1032.html' />
  <store lat='' lng='' name='手工皂' filename=',_1033.html' />
  <store lat='22.644' lng='120.302' name='五珈雞排飯總燴' filename='22.644,120.302_1034.html' />
  <store lat='22.662' lng='120.307' name='正忠排骨飯' filename='22.662,120.307_1035.html' />
  <store lat='25.077' lng='121.585' name='元氣Q奶(內湖)' filename='25.077,121.585_1036.html' />
  <store lat='22.658' lng='120.307' name='江平的店' filename='22.658,120.307_1037.html' />
  <store lat='22.663' lng='120.307' name='貢茶(明華店)' filename='22.663,120.307_1038.html' />
  <store lat='22.992' lng='120.214' name='喜陶春(台南青年店)' filename='22.992,120.214_1039.html' />
  <store lat='24.991' lng='121.308' name='牛丼 桃園站前便當店' filename='24.991,121.308_1040.html' />
  <store lat='23.022' lng='120.223' name='亞米廚房' filename='23.022,120.223_1041.html' />
  <store lat='24.984' lng='121.542' name='楓林食堂' filename='24.984,121.542_1042.html' />
  <store lat='25.023' lng='121.555' name='雷記燒臘' filename='25.023,121.555_1043.html' />
  <store lat='24.977' lng='121.548' name='珍好吃' filename='24.977,121.548_1044.html' />
  <store lat='23.132' lng='120.298' name='百禾雞腿飯' filename='23.132,120.298_1045.html' />
  <store lat='25.076' lng='121.576' name='茶焉泰飲' filename='25.076,121.576_1046.html' />
  <store lat='22.352' lng='120.381' name='賞尼Sunny Shop' filename='22.352,120.381_1047.html' />
  <store lat='22.603' lng='120.305' name='三隻態 親子義麵坊' filename='22.603,120.305_1048.html' />
  <store lat='' lng='' name='黑熊餅舖-寸金糖' filename=',_1049.html' />
  <store lat='25.038' lng='121.427' name='麥格問格' filename='25.038,121.427_1050.html' />
  <store lat='23.13' lng='120.299' name='葉師父燒烤便當' filename='23.13,120.299_1051.html' />
  <store lat='23.132' lng='120.294' name='脆皮爆漿紅豆餅' filename='23.132,120.294_1052.html' />
  <store lat='24.777' lng='121.021' name='健康葉子' filename='24.777,121.021_1053.html' />
  <store lat='24.991' lng='121.31' name='花茶大師' filename='24.991,121.31_1054.html' />
  <store lat='' lng='' name='懷舊木盒便當' filename=',_1055.html' />
  <store lat='24.99' lng='121.311' name='風太日式炭火燒肉(桃園店)' filename='24.99,121.311_1056.html' />
  <store lat='22.003' lng='120.74' name='恆春藍色海遇餐廳' filename='22.003,120.74_1057.html' />
  <store lat='22.664' lng='120.305' name='楊家鴉肉' filename='22.664,120.305_1058.html' />
  <store lat='24.107' lng='120.501' name='紅螞蟻' filename='24.107,120.501_1059.html' />
  <store lat='23.067' lng='120.217' name='郁饌(新版)' filename='23.067,120.217_1060.html' />
  <store lat='25.062' lng='121.532' name='Yo果茶' filename='25.062,121.532_1061.html' />
  <store lat='24.981' lng='121.319' name='周廚燒肉飯(桃園桃鶯店)' filename='24.981,121.319_1062.html' />
  <store lat='22.678' lng='120.313' name='拉麵小路' filename='22.678,120.313_1063.html' />
  <store lat='24.836' lng='121.008' name='四海遊龍(博愛店)' filename='24.836,121.008_1064.html' />
  <store lat='24.975' lng='121.536' name='好友鵝肉-民族店' filename='24.975,121.536_1065.html' />
  <store lat='' lng='' name='Magic Bagel 貝感美味 果真幸' filename=',_1066.html' />
  <store lat='22.613' lng='120.344' name='盛記進口水果公司/紅石洋行有限公司' filename='22.613,120.344_1067.html' />
  <store lat='23.046' lng='121.164' name='關山便當創始店' filename='23.046,121.164_1068.html' />
  <store lat='25.033' lng='121.45' name='奶蓋咩' filename='25.033,121.45_1069.html' />
  <store lat='24.798' lng='120.998' name='大埔鐵板燒_清大店' filename='24.798,120.998_1070.html' />
  <store lat='22.67' lng='120.492' name='曼谷料理' filename='22.67,120.492_1071.html' />
  <store lat='24.997' lng='121.486' name='優鮮果甜檸檬芭樂' filename='24.997,121.486_1072.html' />
  <store lat='' lng='' name='澎湖_尚浩花枝丸' filename=',_1073.html' />
  <store lat='25.05' lng='121.542' name='富甲香排骨飯' filename='25.05,121.542_1074.html' />
  <store lat='22.67' lng='120.492' name='曼谷料理 (屏東市)' filename='22.67,120.492_1075.html' />
  <store lat='22.992' lng='120.218' name='波哥(勝利店)' filename='22.992,120.218_1076.html' />
  <store lat='22.978' lng='120.188' name='呼啦貓鬆餅舖-台南南區分舖' filename='22.978,120.188_1077.html' />
  <store lat='24.308' lng='120.725' name='仙草妹' filename='24.308,120.725_1078.html' />
  <store lat='24.309' lng='120.723' name='50嵐(后里甲后店)' filename='24.309,120.723_1079.html' />
  <store lat='25.041' lng='121.569' name='50嵐(市府捷運店)' filename='25.041,121.569_1080.html' />
  <store lat='' lng='' name='公館廖家食記宜蘭蔥餅' filename=',_1081.html' />
  <store lat='25.118' lng='121.513' name='其中堂餅舖' filename='25.118,121.513_1082.html' />
  <store lat='24.98' lng='121.549' name='飲10珍' filename='24.98,121.549_1083.html' />
  <store lat='' lng='' name='團購 ㊣ 金嬌迷你手工小饅頭' filename=',_1084.html' />
  <store lat='22.665' lng='120.304' name='川味' filename='22.665,120.304_1085.html' />
  <store lat='22.664' lng='120.311' name='浙江俞記_裕誠店' filename='22.664,120.311_1086.html' />
  <store lat='24.964' lng='121.304' name='CoCo都可茶飲(桃園八德)' filename='24.964,121.304_1087.html' />
  <store lat='31.032' lng='121.228' name='崇本堂' filename='31.032,121.228_1088.html' />
  <store lat='' lng='' name='碧涵樓簡餐' filename=',_1089.html' />
  <store lat='23.905' lng='121.537' name='竹緹' filename='23.905,121.537_1090.html' />
  <store lat='25.048' lng='121.447' name='SUBWAY(新莊幸和店)' filename='25.048,121.447_1091.html' />
  <store lat='22.682' lng='120.294' name='逗二69外食館' filename='22.682,120.294_1092.html' />
  <store lat='24.988' lng='121.318' name='舞茶道(八德桃鶯店)' filename='24.988,121.318_1093.html' />
  <store lat='24.84' lng='121.011' name='紅蜻蜓美食' filename='24.84,121.011_1094.html' />
  <store lat='22.989' lng='120.196' name='你我他之家魯味' filename='22.989,120.196_1095.html' />
  <store lat='' lng='' name='Ours 奧爾斯' filename=',_1096.html' />
  <store lat='23.469' lng='120.22' name='余園(余順豐農產加工廠)' filename='23.469,120.22_1097.html' />
  <store lat='24.799' lng='120.997' name='港仔找茶' filename='24.799,120.997_1098.html' />
  <store lat='24.181' lng='120.587' name='古早亭-東海店' filename='24.181,120.587_1099.html' />
  <store lat='25.031' lng='121.553' name='豪香熱炒' filename='25.031,121.553_1100.html' />
  <store lat='25.066' lng='121.517' name='水巷茶弄(台北昌吉店)' filename='25.066,121.517_1101.html' />
  <store lat='24.798' lng='121' name='珍品天丼屋' filename='24.798,121_1102.html' />
  <store lat='31.032' lng='121.228' name='锦菜园' filename='31.032,121.228_1103.html' />
  <store lat='25.035' lng='121.556' name='黑丸嫩仙草 (延吉店)' filename='25.035,121.556_1104.html' />
  <store lat='25.05' lng='121.581' name='新香港燒臘店' filename='25.05,121.581_1105.html' />
  <store lat='25.079' lng='121.546' name='高木樹輪蛋糕' filename='25.079,121.546_1106.html' />
  <store lat='24.247' lng='120.725' name='金川便當' filename='24.247,120.725_1107.html' />
  <store lat='24.154' lng='120.671' name='池上便當-新連興' filename='24.154,120.671_1108.html' />
  <store lat='24.994' lng='121.306' name='派克雞排-桃園三民店' filename='24.994,121.306_1109.html' />
  <store lat='25.036' lng='121.546' name='大安食坊' filename='25.036,121.546_1110.html' />
  <store lat='25.038' lng='121.557' name='君悅排骨' filename='25.038,121.557_1111.html' />
  <store lat='25.024' lng='121.543' name='靚咖哩' filename='25.024,121.543_1112.html' />
  <store lat='25.067' lng='121.583' name='onlycoffee 只有咖啡' filename='25.067,121.583_1113.html' />
  <store lat='25.04' lng='121.578' name='孫家食堂' filename='25.04,121.578_1114.html' />
  <store lat='25.001' lng='121.488' name='芝司樂起司即期品出清' filename='25.001,121.488_1115.html' />
  <store lat='24.236' lng='120.56' name='悟饕池上飯包-沙鹿中正店' filename='24.236,120.56_1116.html' />
  <store lat='25.071' lng='121.63' name='貴妃魷魚羹' filename='25.071,121.63_1117.html' />
  <store lat='24.998' lng='121.488' name='美味佳木片便當' filename='24.998,121.488_1118.html' />
  <store lat='22.665' lng='120.305' name='早安!美芝城' filename='22.665,120.305_1119.html' />
  <store lat='22.623' lng='120.319' name='首爾 韓國食堂' filename='22.623,120.319_1120.html' />
  <store lat='22.665' lng='120.302' name='香淳羊肉店' filename='22.665,120.302_1121.html' />
  <store lat='22.996' lng='120.206' name='櫻波日式手工布丁' filename='22.996,120.206_1122.html' />
  <store lat='24.98' lng='121.542' name='五味臭臭鍋' filename='24.98,121.542_1123.html' />
  <store lat='25.052' lng='121.561' name='打餅鋪手工烙餅專賣店南京店' filename='25.052,121.561_1124.html' />
  <store lat='22.983' lng='120.226' name='早安牛肉店' filename='22.983,120.226_1125.html' />
  <store lat='22.992' lng='120.214' name='喜陶春' filename='22.992,120.214_1126.html' />
  <store lat='24.782' lng='121.007' name='園區牛肉麵' filename='24.782,121.007_1127.html' />
  <store lat='24.952' lng='121.203' name='艾瑞咪精品-嬰幼童鞋' filename='24.952,121.203_1128.html' />
  <store lat='25.078' lng='121.578' name='天天頌鵝肉店' filename='25.078,121.578_1129.html' />
  <store lat='25.002' lng='121.307' name='檸檬泰式' filename='25.002,121.307_1130.html' />
  <store lat='24.799' lng='120.972' name='香港大來燒臘便當店(101年新價格)' filename='24.799,120.972_1131.html' />
  <store lat='24.781' lng='121.024' name='吉野烤肉快餐(光復店)' filename='24.781,121.024_1132.html' />
  <store lat='24.817' lng='120.97' name='友飯香快餐' filename='24.817,120.97_1133.html' />
  <store lat='' lng='' name='百品精緻烤肉盒餐' filename=',_1134.html' />
  <store lat='24.983' lng='121.538' name='鬍鬚張（民權店）' filename='24.983,121.538_1135.html' />
  <store lat='25.055' lng='121.614' name='50嵐 南港園區店' filename='25.055,121.614_1136.html' />
  <store lat='25.075' lng='121.577' name='怡客' filename='25.075,121.577_1137.html' />
  <store lat='23.051' lng='120.219' name='CITY CAFE (7-11總安門市)' filename='23.051,120.219_1138.html' />
  <store lat='25.058' lng='121.557' name='微熱山丘-' filename='25.058,121.557_1139.html' />
  <store lat='25.082' lng='121.572' name='員山豆花' filename='25.082,121.572_1140.html' />
  <store lat='' lng='' name='來得福便當' filename=',_1141.html' />
  <store lat='22.995' lng='120.217' name='麥芽糖' filename='22.995,120.217_1142.html' />
  <store lat='22.644' lng='120.311' name='50嵐(山東店)' filename='22.644,120.311_1143.html' />
  <store lat='24.928' lng='121.376' name='晴sky' filename='24.928,121.376_1144.html' />
  <store lat='24.737' lng='121.09' name='竹東邱記排骨酥麵' filename='24.737,121.09_1145.html' />
  <store lat='24.794' lng='121.013' name='三寶麻辣大腸麵線(科園店)' filename='24.794,121.013_1146.html' />
  <store lat='24.823' lng='121.026' name='誠記麵食館(誠記二店)' filename='24.823,121.026_1147.html' />
  <store lat='23.976' lng='121.606' name='戴記扁食-花蓮傳統扁食' filename='23.976,121.606_1148.html' />
  <store lat='25.05' lng='121.516' name='達達雞排' filename='25.05,121.516_1149.html' />
  <store lat='23.132' lng='120.29' name='榮昌甘記' filename='23.132,120.29_1150.html' />
  <store lat='25.078' lng='121.578' name='甲上燒餅(下午茶)' filename='25.078,121.578_1151.html' />
  <store lat='25.082' lng='121.579' name='蔡老師蔬食便當' filename='25.082,121.579_1152.html' />
